the_geom,postcode,id,name,building_name,street_name,suburb,state,cartodb_id,address,phone_number,latitude,longitude,active,ticket_types_sold,comments,opal_id
0101000020E6100000B8585183A9E362406C3EAE0D15F140C0,2132,24217,Croydon Newsagency, ,3 The Strand,Croydon,NSW,49,"3 The Strand, Croydon NSW 2132",02 9747 5492,-33.883455,151.1144425,true,OPAL,Get an Opal card or top up. Contact outlet for shop accessibility.,24217
0101000020E6100000F5D901D795DD6240E92ADD5D67ED40C0,2164,24528,TSG Smithfield, ,62 Dublin St,Smithfield,NSW,162,"62 Dublin St, Smithfield NSW 2164",02 9757 2344,-33.854717,150.924541,true,OPAL,Get an Opal card or top up. Contact outlet for shop accessibility.,24528
0101000020E61000007A56D28AEFE062403F52448655F440C0,2199,26553,BP Yagoona, ,405 Hume Hwy,Yagoona,NSW,392,"405 Hume Hwy, Yagoona NSW 2199",02 8764 4574,-33.90886,151.029241,true,OPAL,Get an Opal card or top up. Contact outlet for shop accessibility.,26553
0101000020E6100000265646239FED62403F70952710A440C0,2259,29760,Wyong Newsagency, ,3/142 Pacific Hwy,Wyong,NSW,523,"3/142 Pacific Hwy, Wyong NSW 2259",02 4353 1021,-33.281743,151.425676,true,OPAL,Get an Opal card or top up. Contact outlet for shop accessibility.,29760
0101000020E6100000D4D4B2B5BEE06240B8567BD80BF140C0,2143,30546,Park Rd Newsagency, ,407 Park Rd,Regents Park,NSW,660,"407 Park Rd, Regents Park NSW 2143",02 9738 8707,-33.883174,151.02328,true,OPAL,Get an Opal card or top up. Contact outlet for shop accessibility.,30546
0101000020E61000002DFBBF3496E262407CC9101148FC40C0,2223,32456,Cignall Mortdale, ,2A Morts Rd,Mortdale,NSW,771,"2A Morts Rd, Mortdale NSW 2223",02 9579 5923,-33.9709493,151.0808357,true,OPAL,Get an Opal card or top up. Contact outlet for shop accessibility.,32456
0101000020E6100000DC3D8A8440E76240053EF5FEF5F540C0,2032,35447,Ausker Supermarket, ,293 Anzac Pde,Kingsford,NSW,1316,"293 Anzac Pde, Kingsford NSW 2032",02 9313 8028,-33.9215697,151.2266257,true,OPAL,Get an Opal card or top up. Contact outlet for shop accessibility.,35447
0101000020E610000029C6010D29E76240BCCCB051D6EF40C0,2011,35574,Quick & Easy Convenience Store,,40A Darlinghurst Rd,Potts Point,NSW,1343,"40A Darlinghurst Rd, Potts Point NSW 2011",02 9332 4209,-33.873728,151.223761085,true,OPAL,Get an Opal card or top up. Contact outlet for shop accessibility.,35574
0101000020E61000006AD95A5FA4E86240ECFA05BB61EF40C0,2029,100736,IGA Rose Bay, ,1-5 Dover Rd,Rose Bay,NSW,1953,"1-5 Dover Rd, Rose Bay NSW 2029",02 9953 2996,-33.87017,151.270065,true,OPAL,Get an Opal card or top up. Contact outlet for shop accessibility.,34758
0101000020E6100000D4B14AE919E362402DB308C556DC40C0,2076,24228,Normanhurst Newsagency, ,46 Denman Pde,Normanhurst,NSW,58,"46 Denman Pde, Normanhurst NSW 2076",02 9489 5066,-33.721398,151.096913,true,OPAL,Get an Opal card or top up. Contact outlet for shop accessibility.,24228
0101000020E6100000DD4598A25CDF6240CB10C7BAB8E740C0,2145,24310,Y & E Mixed Business, ,82 Bridge Rd,Westmead,NSW,87,"82 Bridge Rd, Westmead NSW 2145",02 9613 0844,-33.810325,150.980058,true,OPAL,Get an Opal card or top up. Contact outlet for shop accessibility.,24310
0101000020E61000001AE1ED4108E36240FE2955A2ECE740C0,2114,26763,BP Victoria Rd, ,898-902 Victoria Rd,West Ryde,NSW,430,"898-902 Victoria Rd, West Ryde NSW 2114",02 9809 7977,-33.811909,151.094758,true,OPAL,Get an Opal card or top up. Contact outlet for shop accessibility.,26763
0101000020E61000000A4EEF75B1DB624009E93D562F0540C0,2337,32604,BP Scone,,19-30 Kelly St,Scone,NSW,777,"19-30 Kelly St, Scone NSW 2337",02 6545 1373,-32.040507107,150.865412681,true,OPAL,Get an Opal card or top up. Contact outlet for shop accessibility.,32604
0101000020E610000049191D026AE36240DAC7C3A80FF640C0,2194,33692,BP Campsie,,65 Bexley Rd ,Campsie,NSW,909,"65 Bexley Rd , Campsie NSW 2194",02 9787 1801,-33.922352882,151.106690461,true,OPAL,Get an Opal card or top up. Contact outlet for shop accessibility.,33692
0101000020E61000007168B5B364B36240D293D17F91B540C0,2795,40553,7-Eleven Kelso,,64-68 Sydney Rd,Kelso,NSW,1639,"64-68 Sydney Rd, Kelso NSW 2795",,-33.418502786,149.606042723,true,OPAL,Get an Opal card or top up. Contact outlet for shop accessibility.,40553
0101000020E610000067A8F9467EE562404C741C9313F340C0,2042,100727,IGA Everyday Enmore, ,191-193 Enmore Rd,Enmore,NSW,1951,"191-193 Enmore Rd, Enmore NSW 2042",02 9557 4104,-33.899034871,151.171664703,true,OPAL,Get an Opal card or top up. Contact outlet for shop accessibility.,24453
0101000020E6100000C359A75011DF6240B1C874BDB4EE40C0,2161,216120,Yennora Station, ,Railway St,Yennora,NSW,2203,"Railway St, Yennora NSW 2161",02 9848 9414,-33.864890749,150.970863654,true,TOPUP,Opal card top up or buy Opal single trip tickets. Contact outlet for accessibility.,
0101000020E610000013FE3AA741E46240EC0C653E26FB40C0,2217,2217,Woolworths Kogarah,Kogarah Town Centre,Railway Pde,Kogarah,NSW,1,"Kogarah Town Centre, Railway Pde, Kogarah NSW 2217",02 8565 9272,-33.962104606,151.133014312,true,OPAL,Get an Opal card or top up. Contact outlet for shop accessibility.,2217
0101000020E61000009C638A8315E962407CBA573976E640C0,2095,20951,Manly Ferry Wharf, ,East Esplanade,Manly,NSW,2,"East Esplanade, Manly NSW 2095", ,-33.80048291,151.2838762,true,TOPUP,Opal card top up or buy Opal single trip tickets. Contact outlet for accessibility.,
0101000020E610000009C03FA58AE662402720DC5328F140C0,2000,23480,Henry Deane Plaza Newsagency, ,12-18 Lee St,Haymarket,NSW,3,"12-18 Lee St, Haymarket NSW 2000",02 9211 7797,-33.8840432,151.2044245,true,OPAL,Get an Opal card or top up. Contact outlet for shop accessibility.,23480
0101000020E610000013B70A62A0E76240885C70067FEF40C0,2027,23869,The Village Store, ,2 Mitchell Rd,Darling Point,NSW,4,"2 Mitchell Rd, Darling Point NSW 2027",02 9328 7237,-33.871064,151.238328,true,OPAL,Get an Opal card or top up. Contact outlet for shop accessibility.,23869
0101000020E6100000F5E0496690E76240DD8321BC87F040C0,2027,23897,Edgecliff Railway Bookstore, ,235 New South Head Rd,Edgecliff,NSW,5,"235 New South Head Rd, Edgecliff NSW 2027",02 9328 0668,-33.8791423,151.2363769,true,OPAL,Get an Opal card or top up. Contact outlet for shop accessibility.,23897
0101000020E6100000B87CEC7ABEE6624014E4955B82EE40C0,2000,24073,Bridgeport Convenience Store,,38-42 Bridge St,Sydney,NSW,6,"38-42 Bridge St, Sydney NSW 2000",02 9247 8736,-33.863353203,151.210751974,true,OPAL,Get an Opal card or top up. Contact outlet for shop accessibility.,24073
0101000020E610000035F7466323E762408DADB195E1EF40C0,2011,24076,EzyMart Kings Cross, ,87 Darlinghurst Rd,Potts Point,NSW,7,"87 Darlinghurst Rd, Potts Point NSW 2011",02 8354 1055,-33.8740718,151.2230698,true,OPAL,Get an Opal card or top up. Contact outlet for shop accessibility.,24076
0101000020E6100000501A6A1492E662408FDFDBF467EF40C0,2000,24088,City Express Convenience, ,225 Clarence St,Sydney,NSW,8,"225 Clarence St, Sydney NSW 2000",02 9099 9014,-33.87036,151.205332,true,OPAL,Get an Opal card or top up. Contact outlet for shop accessibility.,24088
0101000020E61000004BE7C3B384E5624013D4F02DACED40C0,2041,24091,Elliott Street Newsagency, ,491 Darling St,Balmain,NSW,9,"491 Darling St, Balmain NSW 2041",02 9810 2280,-33.856817,151.172449,true,OPAL,Get an Opal card or top up. Contact outlet for shop accessibility.,24091
0101000020E61000000370FD058CE6624099B1B2C755EF40C0,2000,24092,Smartbuy Convenience Store, ,379 Kent St,Sydney,NSW,10,"379 Kent St, Sydney NSW 2000",02 8084 5883,-33.8698053,151.2045927,true,OPAL,Get an Opal card or top up. Contact outlet for shop accessibility.,24092
0101000020E6100000F2B803D0C3E6624028B2D6506AEC40C0,2061,24093,Alfred Convenience Store, ,52 Alfred St,Milsons Point,NSW,11,"52 Alfred St, Milsons Point NSW 2061",02 8920 0966,-33.8469945,151.2114029,true,OPAL,Get an Opal card or top up. Contact outlet for shop accessibility.,24093
0101000020E610000046B23A7E77E6624056944573FAEE40C0,2000,24097,Harbour View Convenience, ,24-26 Erskine St,Sydney,NSW,12,"24-26 Erskine St, Sydney NSW 2000",02 9299 9365,-33.867018136,151.202086558,true,OPAL,Get an Opal card or top up. Contact outlet for shop accessibility.,24097
0101000020E6100000DB0B16981FE36240D29BF639E3D940C0,2077,24098,Coronation Newsagency, ,16 Coronation St,Hornsby,NSW,13,"16 Coronation St, Hornsby NSW 2077",02 9477 1696,-33.7022469,151.0976067,true,OPAL,Get an Opal card or top up. Contact outlet for shop accessibility.,24098
0101000020E610000066D10BDC99E66240E52C2615D1EE40C0,2000,24100,Nu S Mart,Wynyard Station Stand C,Carrington St,Wynyard,NSW,14,"Wynyard Station Stand C, Carrington St, Wynyard NSW 2000",02 9279 0330,-33.865755695,151.206281684,true,OPAL,Get an Opal card or top up. Contact outlet for shop accessibility.,24100
0101000020E610000061DEE34C93E662402618CE35CCEE40C0,2000,24100,Nu S Mart Newsagency,Wynyard Station,Carrington St,Sydney,NSW,15,"Wynyard Station, Carrington St, Sydney NSW 2000",02 9279 0330,-33.865607,151.205481,true,OPAL,Get an Opal card or top up. Contact outlet for shop accessibility.,24100
0101000020E61000001E90DF362EE562405B762DC665DD40C0,2075,24101,St Ives Newsagency, ,219B Mona Vale Rd,St Ives,NSW,16,"219B Mona Vale Rd, St Ives NSW 2075",02 9988 0455,-33.7296684,151.1618914,true,OPAL,Get an Opal card or top up. Contact outlet for shop accessibility.,24101
0101000020E610000058F2C2E7D8E662406B96708D74F040C0,2010,24102,King of the Pack Darlinghurst, ,63 Oxford St,Surry Hills,NSW,17,"63 Oxford St, Surry Hills NSW 2010",02 9283 1347,-33.8785569,151.2139777,true,OPAL,Get an Opal card or top up. Contact outlet for shop accessibility.,24102
0101000020E6100000A00830CCBCE86240F81CBDB976F240C0,2026,24107,EzyMart Bondi Beach,,22 Campbell Pde,Bondi Beach,NSW,18,"22 Campbell Pde, Bondi Beach NSW 2026",02 9518 5633,-33.894248216,151.273046583,true,OPAL,Get an Opal card or top up. Contact outlet for shop accessibility.,24107
0101000020E610000029C3E6534FE0624096F0680950E840C0,2150,24114,Eels Newsagents & Mixed Business,,180 George St,Parramatta,NSW,19,"180 George St, Parramatta NSW 2150",02 9635 8724,-33.814942528,151.009683562,true,OPAL,Get an Opal card or top up. Contact outlet for shop accessibility.,24114
0101000020E610000093EB5C07FDE46240415365CEE9EA40C0,2110,24116,Hunters Hill Newsagency,Building B,37 Alexandra St,Hunters Hill,NSW,20,"Building B, 37 Alexandra St, Hunters Hill NSW 2110",02 9817 2228,-33.8352602,151.1558873,true,OPAL,Get an Opal card or top up. Contact outlet for shop accessibility.,24116
0101000020E6100000E8F44F7F8CEC62403A8F2C8EFAB740C0,2250,24120,Supanews Erina Fair,"Shop T012, Erina Fair Shopping Centre",Terrigal Dr,Erina,NSW,21,"Erina Fair Shopping Centre, Terrigal Dr, Erina NSW 2250",02 4365 3469,-33.437333843,151.392150551,true,OPAL,Get an Opal card or top up. Contact outlet for shop accessibility.,24120
0101000020E6100000B1C1C2491AD56240FCC6D79E59E040C0,2750,24121,Lennox Newsagency,"Shop 36-37, Lennox Shopping Centre",Cnr Great Western Hwy & Pyramid St,Emu Plains,NSW,22,"Lennox Shopping Centre, Cnr Great Western Hwy & Pyramid St, Emu Plains NSW 2750",02 4735 1606,-33.752735,150.659459,true,OPAL,Get an Opal card or top up. Contact outlet for shop accessibility.,24121
0101000020E6100000F5262B2B32E9624064CE8EAF98E440C0,2095,24129,Queenscliff Delicatessen, ,77 Collingwood St,Manly,NSW,23,"77 Collingwood St, Manly NSW 2095",02 9977 5132,-33.7859096,151.2873741,true,OPAL,Get an Opal card or top up. Contact outlet for shop accessibility.,24129
0101000020E6100000808B5FC2B2E86240EE0802BFA1E140C0,2100,24133,Brookvale Newsagency, ,678 Pittwater Rd,Brookvale,NSW,24,"678 Pittwater Rd, Brookvale NSW 2100",02 9905 9011,-33.7627486,151.2718212,true,OPAL,Get an Opal card or top up. Contact outlet for shop accessibility.,24133
0101000020E6100000861403241AE962409F1EDB32E0E440C0,2095,24143,Andy's Mixed Business, ,197 Pittwater Rd,Manly,NSW,25,"197 Pittwater Rd, Manly NSW 2095",02 9976 0888,-33.788092,151.284441,true,OPAL,Get an Opal card or top up. Contact outlet for shop accessibility.,24143
0101000020E61000002D1C52561DE9624023FF27DAB0E340C0,2096,24151,Freshwater News, ,9 Lawrence St,Freshwater,NSW,26,"9 Lawrence St, Freshwater NSW 2096",02 9905 3460,-33.7788346,151.2848312,true,OPAL,Get an Opal card or top up. Contact outlet for shop accessibility.,24151
0101000020E6100000849816B896F662404FDC7DD06B7A40C0,2289,24157,Mobil Highfields,,317 Pacific Hwy,Highfields,NSW,27,"317 Pacific Hwy, Highfields NSW 2289",,-32.956415235,151.705898327,true,OPAL,Get an Opal card or top up. Contact outlet for shop accessibility.,24157
0101000020E610000033A91DD5CBF66240F3CF6C54307B40C0,2290,24160,Kahibah Mini Mart,,3 Glebe St,Kahibah,NSW,28,"3 Glebe St, Kahibah NSW 2290",02 4943 4058,-32.962412408,151.712381895,true,OPAL,Get an Opal card or top up. Contact outlet for shop accessibility.,24160
0101000020E610000050D54EDED1F662402A58E36C3A7640C0,2305,24161,New Lambton Newsagency, ,52 Regent St,New Lambton,NSW,29,"52 Regent St, New Lambton NSW 2305",02 4957 1247,-32.923658,151.7131187,true,OPAL,Get an Opal card or top up. Contact outlet for shop accessibility.,24161
0101000020E6100000E86A2BF697F76240716770A5E87240C0,2304,24163,Mayfield Newsagency, ,171 Maitland Rd,Mayfield,NSW,30,"171 Maitland Rd, Mayfield NSW 2304",02 4968 1791,-32.8977248,151.7373,true,OPAL,Get an Opal card or top up. Contact outlet for shop accessibility.,24163
0101000020E61000000304D61ED4F56240EDE73D63197F40C0,2306,24165,Welcome Mart Windale,,126 South St,Windale,NSW,31,"126 South St, Windale NSW 2306",02 4948 8504,-32.99296227,151.68214361,true,OPAL,Get an Opal card or top up. Contact outlet for shop accessibility.,24165
0101000020E6100000F41ABB44F5F36240E5B7E864A97940C0,2284,24167,R & N Petroleum, ,6 Main Rd,Boolaroo,NSW,32,"6 Main Rd, Boolaroo NSW 2284",02 4958 8951,-32.950482,151.62369,true,OPAL,Get an Opal card or top up. Contact outlet for shop accessibility.,24167
0101000020E61000005265187703DD6240E27327D87FF940C0,2170,24555,Xen Newsagency, ,562 Hume Hwy,Casula,NSW,176,"562 Hume Hwy, Casula NSW 2170",02 9602 2885,-33.949214,150.906673,true,OPAL,Get an Opal card or top up. Contact outlet for shop accessibility.,24555
0101000020E61000008D2441B8C2F66240A67AD745767840C0,2289,24174,Nextra Kotara,Westfield Kotara,Park Ave,Kotara,NSW,33,"Westfield Kotara, Park Ave, Kotara NSW 2289",02 4957 3813,-32.9411094,151.7112695,true,OPAL,Get an Opal card or top up. Contact outlet for shop accessibility.,24174
0101000020E6100000CE9A48FE2AF66240406A39EE197640C0,2305,24176,John Hunter Newsagency,John Hunter Hospital,Lookout Rd,New Lambton Heights,NSW,34,"John Hunter Hospital, Lookout Rd, New Lambton Heights NSW 2305",02 4952 1596,-32.922666338,151.692748205,true,OPAL,Get an Opal card or top up. Contact outlet for shop accessibility.,24176
0101000020E6100000BF5653A321F56240B5DA68A5B58440C0,2280,24177,Belmont Newsagency, ,589 Pacific Hwy,Belmont,NSW,35,"589 Pacific Hwy, Belmont NSW 2280",02 4945 4450,-33.0367934,151.6603562,true,OPAL,Get an Opal card or top up. Contact outlet for shop accessibility.,24177
0101000020E6100000662A696A3EE362407739364C7EF840C0,2208,24188,Kingsgrove Newsagency, ,248 Kingsgrove Rd,Kingsgrove,NSW,36,"248 Kingsgrove Rd, Kingsgrove NSW 2208",02 9150 9174,-33.9413543,151.1013691,true,OPAL,Get an Opal card or top up. Contact outlet for shop accessibility.,24188
0101000020E61000001F72E94EA6E662400E9B6D1393EB40C0,2060,24190,IGA North Sydney,Greenwood Plaza,36 Blue St,North Sydney,NSW,37,"Greenwood Plaza, 36 Blue St, North Sydney NSW 2060",02 9957 6978,-33.8404259,151.2078013,true,OPAL,Get an Opal card or top up. Contact outlet for shop accessibility.,24190
0101000020E6100000B18A37328FE46240DFDE35E84BDF40C0,2073,24195,Pymble Cut Price Supermarket, ,77 Grandview St,Pymble,NSW,38,"77 Grandview St, Pymble NSW 2073",02 9144 4137,-33.744504,151.14248,true,OPAL,Get an Opal card or top up. Contact outlet for shop accessibility.,24195
0101000020E61000004E97C5C4E6E46240AC4B8DD0CFE040C0,2072,24197,EzyMart Gordon, ,725 Pacific Hwy,Gordon,NSW,39,"725 Pacific Hwy, Gordon NSW 2072",02 9418 4472,-33.756342,151.15317,true,OPAL,Get an Opal card or top up. Contact outlet for shop accessibility.,24197
0101000020E6100000FCC8AD4937E26240A6ED5F5969F640C0,2195,24198,Enhance Wiley Park, ,103-107 King Georges Rd,Wiley Park,NSW,40,"103-107 King Georges Rd, Wiley Park NSW 2195",02 9740 9771,-33.92509,151.069249,true,OPAL,Get an Opal card or top up. Contact outlet for shop accessibility.,24198
0101000020E6100000ABEAE5779AE662404BC8073D9BEB40C0,2060,24200,Fastway Supermarket, ,40 Miller St,North Sydney,NSW,41,"40 Miller St, North Sydney NSW 2060",0435 878 488,-33.840675,151.206356,true,OPAL,Get an Opal card or top up. Contact outlet for shop accessibility.,24200
0101000020E610000053BAAAA26EE462409A232BBF0CF240C0,2130,24203,Summer Hill Newsagency, ,18-20 Lackey St,Summer Hill,NSW,42,"18-20 Lackey St, Summer Hill NSW 2130",02 9798 8573,-33.891014,151.1385053,true,OPAL,Get an Opal card or top up. Contact outlet for shop accessibility.,24203
0101000020E6100000CDCEA277AAE1624076E09C11A5F940C0,2210,24204,Foodworks Riverwood, ,305 Belmore Rd,Riverwood,NSW,43,"305 Belmore Rd, Riverwood NSW 2210",02 9153 6247,-33.95035,151.052059,true,OPAL,Get an Opal card or top up. Contact outlet for shop accessibility.,24204
0101000020E61000001939E0FA4DE262403C8A8C7172DE40C0,2120,24206,Pennant Hills Newsagency,,72 Yarrara Rd,Pennant Hills,NSW,44,"72 Yarrara Rd, Pennant Hills NSW 2120",02 9484 1067,-33.73786754,151.072019041,true,OPAL,Get an Opal card or top up. Contact outlet for shop accessibility.,24206
0101000020E6100000F5F1385BCCE26240D4E0044621EE40C0,2137,24208,The Bakehouse Newsagency, ,7 George St,North Strathfield,NSW,45,"7 George St, North Strathfield NSW 2137",02 9763 7544,-33.860390427,151.087445842,true,OPAL,Get an Opal card or top up. Contact outlet for shop accessibility.,24208
0101000020E6100000EC4CA1F35AE36240E22E0CA2FFDA40C0,2077,24209,Waitara Newsagency, ,76 Pacific Hwy,Waitara,NSW,46,"76 Pacific Hwy, Waitara NSW 2077",02 9489 2187,-33.7109263,151.1048525,true,OPAL,Get an Opal card or top up. Contact outlet for shop accessibility.,24209
0101000020E610000094E46F31B5E262404251EADCFEEE40C0,2140,24210,The Homebush Newsagency, ,19 Rochester St,Homebush,NSW,47,"19 Rochester St, Homebush NSW 2140",02 9746 8165,-33.8671528,151.0846183,true,OPAL,Get an Opal card or top up. Contact outlet for shop accessibility.,24210
0101000020E6100000EB3713D305E36240A3B1F677B6EF40C0,2135,24211,Strathfield Newsagency, ,8 The Boulevarde,Strathfield,NSW,48,"8 The Boulevarde, Strathfield NSW 2135",0413 121 811,-33.872756,151.094461,true,OPAL,Get an Opal card or top up. Contact outlet for shop accessibility.,24211
0101000020E61000001B38B1D143E262408440D3B771DE40C0,2120,24218,Market Place News,Pennant Hills Market Place,4-10 Hillcrest Rd,Pennant Hills,NSW,50,"Pennant Hills Market Place, 4-10 Hillcrest Rd, Pennant Hills NSW 2120",02 9484 7121,-33.7378454,151.0707787,true,OPAL,Get an Opal card or top up. Contact outlet for shop accessibility.,24218
0101000020E610000063AF777F3CE262403866D993C0EE40C0,2140,24219,Homebush West Newsagency, ,106 The Crescent,Homebush West,NSW,51,"106 The Crescent, Homebush West NSW 2140",02 9746 8162,-33.865252,151.069885,true,OPAL,Get an Opal card or top up. Contact outlet for shop accessibility.,24219
0101000020E61000006FC44950B2E56240FEC753A060E440C0,2069,24220,Roseville Newsagency, ,41 Hill St,Roseville,NSW,52,"41 Hill St, Roseville NSW 2069",02 9416 5041,-33.7841988,151.1780168,true,OPAL,Get an Opal card or top up. Contact outlet for shop accessibility.,24220
0101000020E6100000DE85F76625E46240432B4190CDDD40C0,2074,24223,Turramurra Newsagency, ,9 Rohini St,Turramurra,NSW,53,"9 Rohini St, Turramurra NSW 2074",02 9144 1802,-33.7328358,151.1295657,true,OPAL,Get an Opal card or top up. Contact outlet for shop accessibility.,24223
0101000020E6100000821B295BE4E26240448BC7A06EE840C0,2114,24224,Meadowbank Newsagency, ,64 Constitution Rd,Meadowbank,NSW,54,"64 Constitution Rd, Meadowbank NSW 2114",02 9809 3476,-33.8158761,151.0903755,true,OPAL,Get an Opal card or top up. Contact outlet for shop accessibility.,24224
0101000020E610000051DA1B7C61E562407EA99F3715F540C0,2044,24225,Payless Fuel Sydenham, ,31-35 Unwins Bridge Rd,Sydenham,NSW,55,"31-35 Unwins Bridge Rd, Sydenham NSW 2044",02 9565 1599,-33.91471,151.16815,true,OPAL,Get an Opal card or top up. Contact outlet for shop accessibility.,24225
0101000020E6100000E5D94015D2E06240FE309D3127F440C0,2199,24226,Yagoona Newsagency, ,462-464 Hume Hwy,Yagoona,NSW,56,"462-464 Hume Hwy, Yagoona NSW 2199",02 9790 2143,-33.9074461,151.0256449,true,OPAL,Get an Opal card or top up. Contact outlet for shop accessibility.,24226
0101000020E610000015FA056068EA62406699EA6E43BE40C0,2256,24227,Peninsula Newsagency,Peninsula Plaza,62-64 Blackwall Rd,Woy Woy,NSW,57,"Peninsula Plaza, 62-64 Blackwall Rd, Woy Woy NSW 2256",02 4342 2355,-33.4864329,151.3252411,true,OPAL,Get an Opal card or top up. Contact outlet for shop accessibility.,24227
0101000020E610000064E76D6CF6E46240DF4E22C2BFE040C0,2072,24229,East Gordon Newsagency, ,75 Werona Ave,Gordon,NSW,59,"75 Werona Ave, Gordon NSW 2072",02 9498 1471,-33.755852,151.155081,true,OPAL,Get an Opal card or top up. Contact outlet for shop accessibility.,24229
0101000020E6100000AC47008852E16240675C895791E540C0,2117,24230,Budget Petrol Telopea,,57 Adderton Rd,Telopea,NSW,60,"57 Adderton Rd, Telopea NSW 2117",02 9873 5474,-33.793497984,151.041324616,true,OPAL,Get an Opal card or top up. Contact outlet for shop accessibility.,24230
0101000020E6100000CC2A6C0638D86240130A117008E140C0,2747,24231,MFC Supermarket Werrington, ,82 Victoria St,Werrington,NSW,61,"82 Victoria St, Werrington NSW 2747",02 9623 0354,-33.75807,150.756839,true,OPAL,Get an Opal card or top up. Contact outlet for shop accessibility.,24231
0101000020E6100000912A483B27E162408CF1C9D9A7EB40C0,2144,26574,BP Auburn,,179 Parramatta Rd,Auburn,NSW,407,"179 Parramatta Rd, Auburn NSW 2144",02 9647 1879,-33.841059898,151.03603901,true,OPAL,Get an Opal card or top up. Contact outlet for shop accessibility.,26574
0101000020E6100000DF89592F06DD6240DC4B1AA375E240C0,2148,24233,CTC Blacktown Main,Shop 2,2-4 Main St,Blacktown,NSW,62,"2-4 Main St, Blacktown NSW 2148",02 9679 9330,-33.769215,150.907005,true,OPAL,Get an Opal card or top up. Contact outlet for shop accessibility.,24233
0101000020E61000001FE6F3D38DDB624032A14761DED640C0,2765,24234,Freechoice Tobacconist Riverstone,"Shop 6, Market Town Shopping Centre",Riverstone Pde,Riverstone,NSW,63,"Market Town Shopping Centre, Riverstone Pde, Riverstone NSW 2765",02 9627 5084,-33.678661499,150.861062981,true,OPAL,Get an Opal card or top up. Contact outlet for shop accessibility.,24234
0101000020E6100000F4A3E19439DF6240DBA7E33103F140C0,2163,24237,Villawood Newsagency, ,33 Villawood Pl,Villawood,NSW,64,"33 Villawood Pl, Villawood NSW 2163",02 9724 2103,-33.88291,150.975779,true,OPAL,Get an Opal card or top up. Contact outlet for shop accessibility.,24237
0101000020E6100000E1B54B1B0EE162403CF54883DBEC40C0,2144,24238,Maihan - Market & Smoke Zone, ,11 Auburn Rd,Auburn,NSW,65,"11 Auburn Rd, Auburn NSW 2144",02 9643 8711,-33.850449,151.032972,true,OPAL,Get an Opal card or top up. Contact outlet for shop accessibility.,24238
0101000020E6100000B01F628305DB62405264ADA1D4E240C0,2766,24244,IGA Rooty Hill, ,1 Rooty Hill Rd,Rooty Hill,NSW,66,"1 Rooty Hill Rd, Rooty Hill NSW 2766",02 9675 7988,-33.772114,150.844423,true,OPAL,Get an Opal card or top up. Contact outlet for shop accessibility.,24244
0101000020E610000025CB49287DDF62408272DBBE47ED40C0,2161,24249,Holroyd Newsagency, ,370 Guildford Rd,Guildford,NSW,67,"370 Guildford Rd, Guildford NSW 2161",02 9632 9126,-33.853752,150.984028,true,OPAL,Get an Opal card or top up. Contact outlet for shop accessibility.,24249
0101000020E61000006ACFD9C095E2624042C09B1A9AFD40C0,2223,24250,Oatley Village Newsagency,,13 Frederick St,Oatley,NSW,68,"13 Frederick St, Oatley NSW 2223",02 9580 1288,-33.981265379,151.080780435,true,OPAL,Get an Opal card or top up. Contact outlet for shop accessibility.,24250
0101000020E6100000AF58359B16D862401C099702D0CC40C0,2753,24254,Richmond Marketplace Newsagency,"Shop 42, Richmond Marketplace","Richmond Marketplace, 64 March St",Richmond,NSW,69,"Richmond Marketplace, Richmond Marketplace, 64 March St, Richmond NSW 2753",02 4588 5972,-33.600097965,150.752759556,true,OPAL,Get an Opal card or top up. Contact outlet for shop accessibility.,24254
0101000020E61000004777103B53DC6240BF47FDF50ADD40C0,2763,24258,General Store & Tobacconists, ,13 Railway Rd,Quakers Hill,NSW,70,"13 Railway Rd, Quakers Hill NSW 2763",02 9626 0105,-33.726897,150.88516,true,OPAL,Get an Opal card or top up. Contact outlet for shop accessibility.,24258
0101000020E610000001BD70E742E362408071BA76B30441C0,2228,24260,South Miranda Newsagency, ,94A Kiora Rd,Miranda,NSW,71,"94A Kiora Rd, Miranda NSW 2228",02 9524 2507,-34.0367268,151.101917,true,OPAL,Get an Opal card or top up. Contact outlet for shop accessibility.,24260
0101000020E6100000234A7B83AFDB6240F1F09E03CBFF40C0,2565,24261,Ingleburn Newsagency, ,15 Oxford Rd,Ingleburn,NSW,72,"15 Oxford Rd, Ingleburn NSW 2565",02 9605 1340,-33.998383,150.865175,true,OPAL,Get an Opal card or top up. Contact outlet for shop accessibility.,24261
0101000020E61000002A7288B839E262405F5E807D74EC40C0,2127,24263,Olympic Park Convenience, ,10 Dawn Fraser Ave,Sydney Olympic Park,NSW,73,"10 Dawn Fraser Ave, Sydney Olympic Park NSW 2127",02 9764 5110,-33.847305,151.069546,true,OPAL,Get an Opal card or top up. Contact outlet for shop accessibility.,24263
0101000020E61000009D4B7155D9E16240A8734529210441C0,2232,24265,Sutherland Newsagency, ,796 Princes Hwy,Sutherland,NSW,74,"796 Princes Hwy, Sutherland NSW 2232",02 9521 2292,-34.032262,151.05778,true,OPAL,Get an Opal card or top up. Contact outlet for shop accessibility.,24265
0101000020E6100000E658DE550FDE62408A01124DA0F240C0,2166,24266,Cabramatta East Newsagency, ,150 Cabramatta Rd,Cabramatta,NSW,75,"150 Cabramatta Rd, Cabramatta NSW 2166",02 9724 1194,-33.895517,150.939372,true,OPAL,Get an Opal card or top up. Contact outlet for shop accessibility.,24266
0101000020E6100000016E162F16E26240C9AD49B7250241C0,2226,24267,Jannali Newsagency, ,86 Railway Cres,Jannali,NSW,76,"86 Railway Cres, Jannali NSW 2226",02 9528 9558,-34.016776,151.065208,true,OPAL,Get an Opal card or top up. Contact outlet for shop accessibility.,24267
0101000020E6100000BCA5E6BC90DD6240F06AB93313F640C0,2170,24271,Liverpool Convenience Store, ,208-212 Macquarie St,Liverpool,NSW,77,"208-212 Macquarie St, Liverpool NSW 2170",02 9600 6260,-33.922461,150.9239182,true,OPAL,Get an Opal card or top up. Contact outlet for shop accessibility.,24271
0101000020E6100000DB9F30CD59E0624011C88047AFEA40C0,2142,24272,Granville Newsagency, ,26 South St,Granville,NSW,78,"26 South St, Granville NSW 2142",02 9637 1719,-33.8334741,151.0109621,true,OPAL,Get an Opal card or top up. Contact outlet for shop accessibility.,24272
0101000020E6100000AB64B61A08DD624093872AA160E240C0,2148,24274,CTC Blacktown,Blacktown Station,Main St,Blacktown,NSW,79,"Blacktown Station, Main St, Blacktown NSW 2148",02 9679 7787,-33.7685739,150.9072393,true,OPAL,Get an Opal card or top up. Contact outlet for shop accessibility.,24274
0101000020E6100000417DCB9C2EDE6240C47762D68BF140C0,2166,24276,Canley Vale News, ,1 Canley Vale Rd,Canley Vale,NSW,80,"1 Canley Vale Rd, Canley Vale NSW 2166",02 9724 6584,-33.88708,150.94319,true,OPAL,Get an Opal card or top up. Contact outlet for shop accessibility.,24276
0101000020E6100000F58079C894DA62401684F23E8E0641C0,2560,24277,Leumeah Newsagency, ,O'Sullivan Rd,Leumeah,NSW,81,"O'Sullivan Rd, Leumeah NSW 2560",02 4625 1496,-34.051216,150.830662,true,OPAL,Get an Opal card or top up. Contact outlet for shop accessibility.,24277
0101000020E6100000B631A142C8DD624002EC6E6187E140C0,2147,24283,CTC Lalor Park,,16 Freeman St,Lalor Park,NSW,82,"16 Freeman St, Lalor Park NSW 2147",02 9624 8180,-33.761943988,150.930695834,true,OPAL,Get an Opal card or top up. Contact outlet for shop accessibility.,24283
0101000020E61000004F3FA88B14E5624023F59ECA69DD40C0,2075,24293,St Ives Village Newsagency, ,166-172 Mona Vale Rd,St Ives,NSW,83,"166-172 Mona Vale Rd, St Ives NSW 2075",02 9449 7565,-33.729791,151.158758,true,OPAL,Get an Opal card or top up. Contact outlet for shop accessibility.,24293
0101000020E6100000629813B4C9DD624044D7851F9CE140C0,2147,24296,IGA Lalor Park, ,58 Freeman St,Lalor Park,NSW,84,"58 Freeman St, Lalor Park NSW 2147",02 9624 4254,-33.762577,150.930872,true,OPAL,Get an Opal card or top up. Contact outlet for shop accessibility.,24296
0101000020E61000003B29EF8A40E06240F35461156AF040C0,2162,24306,Abu Youssef Mini Mart,,23A Hector St,Chester Hill,NSW,85,"23a Hector St, Chester Hill NSW 2162",02 9743 8068,-33.878237412,151.007878749,true,OPAL,Get an Opal card or top up. Contact outlet for shop accessibility.,24306
0101000020E6100000B7AA36493DDF6240EFE76F9DDADF40C0,2153,24308,Welcome Mart Baulkham Hills, ,1A Glanmire Rd,Baulkham Hills,NSW,86,"1A Glanmire Rd, Baulkham Hills NSW 2153",02 9838 0151,-33.7488591,150.9762312,true,OPAL,Get an Opal card or top up. Contact outlet for shop accessibility.,24308
0101000020E610000076A911FA19E06240ABCC94D6DFE040C0,2153,24311,Hills Wine House & Supermarket, ,34-36 Baker Cres,Baulkham Hills,NSW,88,"34-36 Baker Cres, Baulkham Hills NSW 2153",02 9639 7652,-33.756831,151.003171,true,OPAL,Get an Opal card or top up. Contact outlet for shop accessibility.,24311
0101000020E6100000D8F2CAF5B6E662404FCFBBB1A0DE40C0,2085,24316,Belrose Newsagency,Glenrose Shopping Centre,Glen St,Belrose,NSW,89,"Glenrose Shopping Centre, Glen St, Belrose NSW 2085",02 9451 9171,-33.739279,151.209834,true,OPAL,Get an Opal card or top up. Contact outlet for shop accessibility.,24316
0101000020E6100000BC61A8B1E7DD6240A6278F1BBCE540C0,2146,24318,IGA Toongabbie,,4 Claudia Rd,Toongabbie,NSW,90,"4 Claudia Rd, Toongabbie NSW 2146",02 9631 0402,-33.79480309,150.934532956,true,OPAL,Get an Opal card or top up. Contact outlet for shop accessibility.,24318
0101000020E6100000DDCEBEF2A0E16240C87553CA6BDB40C0,2126,24319,Lucky 7 Cherrybrook, ,132 Shepherds Dr,Cherrybrook,NSW,91,"132 Shepherds Dr, Cherrybrook NSW 2126",02 9875 1757,-33.714227,151.050897,true,OPAL,Get an Opal card or top up. Contact outlet for shop accessibility.,24319
0101000020E610000001310917F2DE624097689082A7E440C0,2146,24320,IGA Old Toongabbie, ,54-56 Fitzwilliam Rd,Old Toongabbie,NSW,92,"54-56 Fitzwilliam Rd, Old Toongabbie NSW 2146",02 9631 8583,-33.786362,150.967052,true,OPAL,Get an Opal card or top up. Contact outlet for shop accessibility.,24320
0101000020E6100000DFF6A9CFFAE062407A455CA560DF40C0,2125,24322,Coonara Newsagency, ,35 Coonara Ave,West Pennant Hills,NSW,93,"35 Coonara Ave, West Pennant Hills NSW 2125",02 9680 7655,-33.7451369,151.0306166,true,OPAL,Get an Opal card or top up. Contact outlet for shop accessibility.,24322
0101000020E61000009DC9480775E1624016ACCCEF8FD340C0,2159,24327,Galston Village Newsagency, ,354 Galston Rd,Galston,NSW,94,"354 Galston Rd, Galston NSW 2159",02 9653 1578,-33.6528301,151.0455357,true,OPAL,Get an Opal card or top up. Contact outlet for shop accessibility.,24327
0101000020E6100000E0C61CBACFE76240B2B96A9E23E040C0,2086,24330,Skyline Newsagency, ,18A Frenchs Forest Rd,Frenchs Forest,NSW,95,"18A Frenchs Forest Rd, Frenchs Forest NSW 2086",02 9451 5503,-33.751087,151.2441073,true,OPAL,Get an Opal card or top up. Contact outlet for shop accessibility.,24330
0101000020E610000088D57A1A8BDD6240B46FEEAF1EDF40C0,2147,24332,Kings Langley Newsagency, ,125 James Cook Dr,Kings Langley,NSW,96,"125 James Cook Dr, Kings Langley NSW 2147",02 9674 3318,-33.743124,150.9232304,true,OPAL,Get an Opal card or top up. Contact outlet for shop accessibility.,24332
0101000020E610000085CC3A8842DF62403E7782FDD7E640C0,2145,24333,Darcy Rd Newsagency, ,39 Darcy Rd,Wentworthville,NSW,97,"39 Darcy Rd, Wentworthville NSW 2145",02 9631 9283,-33.8034665,150.9768716,true,OPAL,Get an Opal card or top up. Contact outlet for shop accessibility.,24333
0101000020E610000032CA425AA4E06240A842E55A92EE40C0,2144,24334,Wellington Mixed Business,,74 Wellington Rd ,Auburn,NSW,98,"74 Wellington Rd, Auburn NSW 2144",02 9646 1308,-33.863841402,151.020062571,true,OPAL,Get an Opal card or top up. Contact outlet for shop accessibility.,24334
0101000020E61000006F067FBF98E06240052D246074E740C0,2151,24339,Honest Grocery & Convenience,Shop 2,146 Pennant St,North Parramatta,NSW,99,"146 Pennant St, North Parramatta NSW 2151",02 9890 8679,-33.808239,151.018646,true,OPAL,Get an Opal card or top up. Contact outlet for shop accessibility.,24339
0101000020E6100000C56E07398BDE62408A83606267F940C0,2170,24341,IGA Hammondville,,48 Walder Rd,Hammondville,NSW,100,"48 Walder Rd, Hammondville NSW 2170",02 9825 3071,-33.948467538,150.954494967,true,OPAL,Get an Opal card or top up. Contact outlet for shop accessibility.,24341
0101000020E61000005D2CB1D7A0DF6240FD0406FF11F840C0,2214,24343,Milperra Newsagency, ,6-8 Bullecourt Ave,Milperra,NSW,101,"6-8 Bullecourt Ave, Milperra NSW 2214",02 9772 3568,-33.9380492,150.9883841,true,OPAL,Get an Opal card or top up. Contact outlet for shop accessibility.,24343
0101000020E6100000AA2C2BC951DD624075BA389954D740C0,2155,24345,Rouse Hill Newsagency,"Shop 6, Rouse Hill Village Centre",Windsor Rd,Rouse Hill,NSW,102,"Rouse Hill Village Centre, Windsor Rd, Rouse Hill NSW 2155",,-33.682269242,150.91623362,true,OPAL,Get an Opal card or top up. Contact outlet for shop accessibility.,24345
0101000020E61000001DE38A8BA3DD62403BFDA02E52E640C0,2148,24346,Welcome Mart Prospect, ,3 Aldgate St,Prospect,NSW,103,"3 Aldgate St, Prospect NSW 2148",02 9631 8022,-33.799383,150.926214,true,OPAL,Get an Opal card or top up. Contact outlet for shop accessibility.,24346
0101000020E61000001D1CEC4D8CDD62409A779CA223DF40C0,2147,24349,CTC Kings Langley, ,16 James Cook Dr,Kings Langley,NSW,104,"16 James Cook Dr, Kings Langley NSW 2147",02 9838 4055,-33.743275,150.923377,true,OPAL,Get an Opal card or top up. Contact outlet for shop accessibility.,24349
0101000020E6100000843FE96238DE6240D26E1AF941FA40C0,2173,24350,Wattle Grove Newsagency,Wattle Grove Plaza,Village Way,Wattle Grove,NSW,105,"Village Way, Wattle Grove NSW 2173",02 9825 3227,-33.955138338,150.944383102,true,OPAL,Get an Opal card or top up. Contact outlet for shop accessibility.,24350
0101000020E6100000A6608DB3E9DC6240D6C6D8092F3141C0,2518,24354,Freedom Fuels Towradgi, ,119 Towradgi Rd,Towradgi,NSW,106,"119 Towradgi Rd, Towradgi NSW 2518",02 4283 5100,-34.384248,150.903528,true,OPAL,Get an Opal card or top up. Contact outlet for shop accessibility.,24354
0101000020E6100000217134EC5CCD6240B8B1344B5D3D41C0,2576,24359,Cameron's Newsgaency, ,315 Bong Bong St,Bowral,NSW,107,"315 Bong Bong St, Bowral NSW 2576",02 4861 1853,-34.4794096,150.4175931,true,OPAL,Get an Opal card or top up. Contact outlet for shop accessibility.,24359
0101000020E6100000BA956FC7E5D362403637A6272CE240C0,2773,24360,Glenbrook Newsagency, ,5 Ross St,Glenbrook,NSW,108,"5 Ross St, Glenbrook NSW 2773",02 4739 1802,-33.7669725,150.6217992,true,OPAL,Get an Opal card or top up. Contact outlet for shop accessibility.,24360
0101000020E610000016A1D80A9AE6624092CA147310F040C0,2000,24363,City Convenience Store George St, ,525 George St,Sydney,NSW,109,"525 George St, Sydney NSW 2000",02 9267 8366,-33.875502,151.206304,true,OPAL,Get an Opal card or top up. Contact outlet for shop accessibility.,24363
0101000020E6100000E22021CA17E7624029931ADA00F040C0,2011,24371,EzyMart William St, ,234 William St,Potts Point,NSW,110,"234 William St, Potts Point NSW 2011",02 9357 2654,-33.875026,151.221654,true,OPAL,Get an Opal card or top up. Contact outlet for shop accessibility.,24371
0101000020E6100000BDC3EDD030E8624098F6CDFDD5F540C0,2034,24373,City Mart Coogee Bay Rd, ,250 Coogee Bay Rd,Coogee,NSW,111,"250 Coogee Bay Rd, Coogee NSW 2034",02 9665 1778,-33.920593,151.255959,true,OPAL,Get an Opal card or top up. Contact outlet for shop accessibility.,24373
0101000020E6100000C7D8092F41E76240677E350708F640C0,2032,24375,Tokyo Super, ,307 Anzac Pde,Kingsford,NSW,112,"307 Anzac Pde, Kingsford NSW 2032",02 9662 4908,-33.92212,151.226707,true,OPAL,Get an Opal card or top up. Contact outlet for shop accessibility.,24375
0101000020E61000008CBD175F34E7624047C49448A2EF40C0,2011,24376,City Convenience Store Potts Point,Shop 3,50-58 Macleay St,Elizabeth Bay,NSW,113,"50-58 Macleay St, Elizabeth Bay NSW 2011",02 9357 7916,-33.87214,151.225143,true,OPAL,Get an Opal card or top up. Contact outlet for shop accessibility.,24376
0101000020E61000000234000AA4E66240CA7C51CC8BF340C0,2017,24377,Green Square Supermarket, ,965 Bourke St,Waterloo,NSW,114,"965 Bourke St, Waterloo NSW 2017",02 8399 2332,-33.9027038,151.2075243,true,OPAL,Get an Opal card or top up. Contact outlet for shop accessibility.,24377
0101000020E610000070D63B3748E762408969954F45F640C0,2032,24380,IGA Kingsford, ,361 Anzac Pde,Kingsford,NSW,115,"361 Anzac Pde, Kingsford NSW 2032",02 9663 4737,-33.9239902,151.2275654,true,OPAL,Get an Opal card or top up. Contact outlet for shop accessibility.,24380
0101000020E61000009ABE88CA37DA624059C4BFEE054841C0,2529,24388,Metro Petroleum Oak Flats, ,80 Central Ave,Oak Flats,NSW,116,"80 Central Ave, Oak Flats NSW 2529",02 4257 5338,-34.562681049,150.819310443,true,OPAL,Get an Opal card or top up. Contact outlet for shop accessibility.,24388
0101000020E61000007AD843AF7AE46240AB487D40FD0641C0,2230,24396,Burraneer Supermarket,,139 Woolooware Rd,Burraneer,NSW,117,"139 Woolooware Rd, Burraneer NSW 2230",02 9523 8008,-34.054603635,151.139976151,true,OPAL,Get an Opal card or top up. Contact outlet for shop accessibility.,24396
0101000020E6100000B0CD21047FE06240A77FA4E3C50141C0,2234,24398,Menai Newsagency,Menai Market Place,152-194 Allison Cres,Menai,NSW,118,"Menai Market Place, 152-194 Allison Cres, Menai NSW 2234",02 9541 4331,-34.0138516,151.0155049,true,OPAL,Get an Opal card or top up. Contact outlet for shop accessibility.,24398
0101000020E6100000504398FE8CE06240E671D9671CF840C0,2212,24404,Metro Petroleum Revesby West,,10-12 Milperra Rd,Revesby,NSW,119,"10-12 Milperra Rd, Revesby NSW 2212",02 9772 2310,-33.938366872,151.017211244,true,OPAL,Get an Opal card or top up. Contact outlet for shop accessibility.,24404
0101000020E61000006B239EEC66E3624030D0B52FA00341C0,2228,24412,Metro Petroleum Miranda, ,220 Port Hacking Rd,Miranda,NSW,120,"220 Port Hacking Rd, Miranda NSW 2228",02 9531 4793,-34.028326,151.106314,true,OPAL,Get an Opal card or top up. Contact outlet for shop accessibility.,24412
0101000020E6100000975643E21EDD6240526342CC252F41C0,2518,24414,Metro Petroleum Bellambi,,209-211 Rothery St,Bellambi,NSW,121,"209-211 Rothery St , Bellambi NSW 2518",02 4283 4461,-34.368341,150.91002,true,OPAL,Get an Opal card or top up. Contact outlet for shop accessibility.,24414
0101000020E6100000CE88D2DEE0E06240215C01857AF840C0,2211,24415,Salam Convenience, ,93 Gibson Ave,Padstow,NSW,122,"93 Gibson Ave, Padstow NSW 2211",02 9773 6143,-33.941239,151.02745,true,OPAL,Get an Opal card or top up. Contact outlet for shop accessibility.,24415
0101000020E61000002ACA84E392E1624050FF3D9EB4F640C0,2196,24416,Punchbowl Convenience Plus,,849 Punchbowl Rd ,Punchbowl,NSW,123,"849 Punchbowl Rd, Punchbowl NSW 2196 ",,-33.927387028,151.049180755,true,OPAL,Get an Opal card or top up. Contact outlet for shop accessibility.,24416
0101000020E61000006295AF2449DC62404395BD4C243841C0,2500,24421,Your Fuel,,136 Gladstone Ave,Coniston ,NSW,124,"136 Gladstone Ave, Coniston NSW 2500",,-34.438607781,150.883928626,true,OPAL,Get an Opal card or top up. Contact outlet for shop accessibility.,24421
0101000020E6100000F0DEB68EE8DB624058E61F10374241C0,2502,24425,Sunset Petroleum, ,146 Windang Rd,Primbee,NSW,125,"146 Windang Rd, Primbee NSW 2502",02 4296 5683,-34.517305389,150.872138364,true,OPAL,Get an Opal card or top up. Contact outlet for shop accessibility.,24425
0101000020E6100000DEA51BFBDEE36240394DFCD78D0741C0,2229,24426,IGA Lilli Pilli,,526-532 Port Hacking Rd,Caringbah South,NSW,126,"526-532 Port Hacking Rd, Caringbah South NSW 2229",02 9524 2384,-34.059016226,151.120969347,true,OPAL,Get an Opal card or top up. Contact outlet for shop accessibility.,24426
0101000020E61000000F290648B4D962404051D9B0A64841C0,2527,24428,Enhance Albion Park,,253 Princes Hwy,Albion Park Rail,NSW,127,"253 Princes Hwy, Albion Park Rail NSW 2527",02 4256 6694,-34.567587,150.803257,true,OPAL,Get an Opal card or top up. Contact outlet for shop accessibility.,24428
0101000020E61000002C0D3EC598E1624084CC723261F740C0,2196,24440,Punchbowl Convenience Store,,1484 Canterbury Rd ,Punchbowl,NSW,128,"1484 Canterbury Rd, Punchbowl NSW 2196",02 9708 5510,-33.932653719,151.04989874,true,OPAL,Get an Opal card or top up. Contact outlet for shop accessibility.,24440
0101000020E610000038899C1998E26240C0C52F61D90041C0,2225,24443,Oyster Bay Newsagency, ,123-127 Como Rd,Oyster Bay,NSW,129,"123-127 Como Rd, Oyster Bay NSW 2225",02 9528 7007,-34.0066339,151.0810669,true,OPAL,Get an Opal card or top up. Contact outlet for shop accessibility.,24443
0101000020E610000053AEF02E57E3624037A5BC56420141C0,2224,24444,Southgate Newsagency,Southgate Shopping Centre,Cnr Princes Hwy & Port Hacking Rd,Sylvania,NSW,130,"Southgate Shopping Centre, Cnr Princes Hwy & Port Hacking Rd, Sylvania NSW 2224",02 6522 9073,-34.009837,151.1043925,true,OPAL,Get an Opal card or top up. Contact outlet for shop accessibility.,24444
0101000020E6100000E910381268DF624026C808A8701841C0,2508,24449,Helensburgh Newsagency,Shop 7,123 Parkes St,Helensburgh,NSW,131,"123 Parkes St, Helensburgh NSW 2508",02 4294 1036,-34.190938,150.981454,true,OPAL,Get an Opal card or top up. Contact outlet for shop accessibility.,24449
0101000020E6100000301534908BDB6240E2025ED3B44641C0,2528,24450,Wals Pharmacy,,3-5 George St,Warilla,NSW,132,"3-5 George St, Warilla NSW 2528",02 4295 1429,-34.552393361,150.860786535,true,OPAL,Get an Opal card or top up. Contact outlet for shop accessibility.,24450
0101000020E6100000F35071A231E66240DF4A345032F140C0,2037,24455,Ezy Convenience Store, ,257 Broadway,Glebe,NSW,133,"257 Broadway, Glebe NSW 2037",02 9518 4690,-33.88434794,151.193558904,true,OPAL,Get an Opal card or top up. Contact outlet for shop accessibility.,24455
0101000020E61000001F97DD384EE4624064F9049A19F140C0,2048,24458,Haberfield Petrol, ,163-165 Parramatta Rd,Haberfield,NSW,134,"163-165 Parramatta Rd, Haberfield NSW 2048",02 9799 8038,-33.8835938,151.1345486,true,OPAL,Get an Opal card or top up. Contact outlet for shop accessibility.,24458
0101000020E61000009FC9FE799AE26240A20A7F8637F540C0,2192,24462,All Seasons Convenience Store, ,1 Benaron Rd,Belmore,NSW,135,"1 Benaron Rd, Belmore NSW 2192",02 9703 1262,-33.915757,151.081357,true,OPAL,Get an Opal card or top up. Contact outlet for shop accessibility.,24462
0101000020E61000008E1B237EEAE2624097C9703C9FF140C0,2136,24465,Strathfield South Newsagency, ,193 The Boulevarde,Strathfield,NSW,136,"193 The Boulevarde, Strathfield NSW 2136",02 9642 2974,-33.887672,151.0911246,true,OPAL,Get an Opal card or top up. Contact outlet for shop accessibility.,24465
0101000020E610000015AF33370FE46240A4B7AAB290F940C0,2207,24466,IGA Bexley,,424-426 Forest Rd,Bexley,NSW,137,"424-426 Forest Rd, Bexley NSW 2207",02 9567 2879,-33.94972833,151.126857377,true,OPAL,Get an Opal card or top up. Contact outlet for shop accessibility.,24466
0101000020E610000069E9656F84E56240FFE89B340DF340C0,2042,24467,Foodworks Enmore, ,173A Enmore Rd,Enmore,NSW,138,"173A Enmore Rd, Enmore NSW 2042",02 9517 2771,-33.8988405,151.1724164,true,OPAL,Get an Opal card or top up. Contact outlet for shop accessibility.,24467
0101000020E6100000C422861D46DD6240C4B5DAC35EE040C0,2148,24472,Metro Petroleum Blacktown South, ,148 Sunnyholt Rd,Blacktown,NSW,139,"148 Sunnyholt Rd, Blacktown NSW 2148",02 9622 8993,-33.752892,150.914809,true,OPAL,Get an Opal card or top up. Contact outlet for shop accessibility.,24472
0101000020E6100000C48BCFAE4CD662408951216816E340C0,2750,24474,Southlands Newsagency,Southlands Shopping Centre,2 Birmingham Rd,South Penrith,NSW,140,"Southlands Shopping Centre, 2 Birmingham Rd, South Penrith NSW 2750",02 4722 8882,-33.7741213,150.6968607,true,OPAL,Get an Opal card or top up. Contact outlet for shop accessibility.,24474
0101000020E6100000EBA4BE2C6DDB624000CADFBDA3F640C0,2171,24476,Hoxton Park Newsagency,Shop 4,600 Hoxton Park Rd,Hoxton Park,NSW,141,"600 Hoxton Park Rd, Hoxton Park NSW 2171",02 9607 4179,-33.926872,150.857077,true,OPAL,Get an Opal card or top up. Contact outlet for shop accessibility.,24476
0101000020E61000000EDC195710DA6240A1A53A03B4F540C0,2179,24485,West Hoxton Newsagency,"Shop 8, West Hoxton Shopping Centre",Cnr Fifteenth Ave & Edmondson Ave,Austral,NSW,142,"West Hoxton Shopping Centre, Cnr Fifteenth Ave & Edmondson Ave, Austral NSW 2179",02 9606 0903,-33.919556049,150.814494658,true,OPAL,Get an Opal card or top up. Contact outlet for shop accessibility.,24485
0101000020E610000072FA7ABE66D562407B4E7ADFF8E440C0,2745,24486,King of the Pack Glenmore Park,"Shop 5, Glenmore Park Town Centre",Town Tce,Glenmore Park,NSW,143,"Glenmore Park Town Centre, Town Tce, Glenmore Park NSW 2745",02 4737 8401,-33.788845,150.668792,true,OPAL,Get an Opal card or top up. Contact outlet for shop accessibility.,24486
0101000020E61000001F705007C1DE62400367B904D1EC40C0,2161,24487,Joes Food Stop,Shop 3,127 Fairfield Rd,Guildford West,NSW,144,"127 Fairfield Rd, Guildford West NSW 2161",02 9632 4228,-33.850128737,150.961063058,true,OPAL,Get an Opal card or top up. Contact outlet for shop accessibility.,24487
0101000020E6100000E00CFE7EB1DC6240265646239FF340C0,2170,24489,Speedway Mount Pritchard, ,348 Elizabeth Dr,Mount Pritchard,NSW,145,"348 Elizabeth Dr, Mount Pritchard NSW 2170",02 9610 4541,-33.903294,150.896667,true,OPAL,Get an Opal card or top up. Contact outlet for shop accessibility.,24489
0101000020E61000002D77668261D9624005A1BC8FA3E340C0,2760,24490,Deeps Takeaway & Supermarket, ,97 Carpenter St,Colyton,NSW,146,"97 Carpenter St, Colyton NSW 2760",02 9673 0909,-33.778429,150.793153,true,OPAL,Get an Opal card or top up. Contact outlet for shop accessibility.,24490
0101000020E61000005706D506A7DB624029266F8099F940C0,2170,24491,Dawn Newsagency, ,119 Wroxhan St,Prestons,NSW,147,"119 Wroxhan St, Prestons NSW 2170",02 9608 5140,-33.949997,150.864139,true,OPAL,Get an Opal card or top up. Contact outlet for shop accessibility.,24491
0101000020E610000000529B3839DD6240A20914B188F540C0,2170,24494,Fast & Ezy Liverpool, ,104-106 Elizabeth Dr,Liverpool,NSW,148,"104-106 Elizabeth Dr, Liverpool NSW 2170",02 9602 3136,-33.918234,150.913235,true,OPAL,Get an Opal card or top up. Contact outlet for shop accessibility.,24494
0101000020E6100000FA4C518946DC6240B8D562A6A3F540C0,2168,24496,Miller Newsagency,Miller Shopping Centre,90 Cartwright Ave,Miller,NSW,149,"Miller Shopping Centre, 90 Cartwright Ave, Miller NSW 2168",02 9607 7219,-33.9190567,150.8836104,true,OPAL,Get an Opal card or top up. Contact outlet for shop accessibility.,24496
0101000020E610000069F68247C2DB624041BB1DC31EF440C0,2168,24499,CTC Green Valley,"Shop 10, The Valley Plaza",189 Wilson Rd,Green Valley,NSW,150,"The Valley Plaza, 187 Wilson Rd, Green Valley NSW 2168",02 8883 0455,-33.907188787,150.86746574,true,OPAL,Get an Opal card or top up. Contact outlet for shop accessibility.,24499
0101000020E6100000AED3484B65DE6240A30227DBC0EF40C0,2165,24500,V Power Fairfield, ,82 Hamilton Rd,Fairfield,NSW,151,"82 Hamilton Rd, Fairfield NSW 2165",02 9755 7611,-33.873073,150.949865,true,OPAL,Get an Opal card or top up. Contact outlet for shop accessibility.,24500
0101000020E6100000CAFF3FA9B1D96240740E91DF4A0941C0,2560,24501,Market Fair Newsagency,Shop 25,4 Tindall St,Campbelltown,NSW,152,"4 Tindall St, Campbelltown NSW 2560",02 4627 9422,-34.072597452,150.80293715,true,OPAL,Get an Opal card or top up. Contact outlet for shop accessibility.,24501
0101000020E6100000F0A485CB2ADD624074620FED63EF40C0,2176,24504,Wakeley Mixed Business,Shop 10,4 Lomond St,Wakeley,NSW,153,"4 Lomond St, Wakeley NSW 2176",02 9756 5048,-33.870237,150.911474,true,OPAL,Get an Opal card or top up. Contact outlet for shop accessibility.,24504
0101000020E6100000731E7BE121DA6240F3F25A5A240441C0,2558,24509,Eagle Vale Newsagency,"Shop 6, Eagle Vale Marketplace",Eagle Vale Dr,Eagle Vale,NSW,154,"Eagle Vale Marketplace, Eagle Vale Dr, Eagle Vale NSW 2558",02 9824 8516,-34.032359404,150.816635838,true,OPAL,Get an Opal card or top up. Contact outlet for shop accessibility.,24509
0101000020E61000003B819C6F15D7624048D1EE83B8DF40C0,2747,24512,Friendly Grocer Cambridge Park, ,112 Oxford St,Cambridge Park,NSW,155,"112 Oxford St, Cambridge Park NSW 2747",02 4731 6840,-33.747818462,150.721366697,true,OPAL,Get an Opal card or top up. Contact outlet for shop accessibility.,24512
0101000020E61000000C94145880D4624007AEF204C2EE40C0,2745,24517,Wallacia Newsagency,Shop 3,1 Park Rd,Wallacia,NSW,156,"1 Park Rd, Wallacia NSW 2745",02 4773 8067,-33.865296,150.640667,true,OPAL,Get an Opal card or top up. Contact outlet for shop accessibility.,24517
0101000020E6100000CD5A0A487BD6624013CC988235E240C0,2750,24518,Budget Petrol Penrith, ,184 Smith St,South Penrith,NSW,157,"184 Smith St, South Penrith NSW 2750",02 4722 6660,-33.767258,150.702549,true,OPAL,Get an Opal card or top up. Contact outlet for shop accessibility.,24518
0101000020E6100000B9C667B2FFD96240BA421F2C63F740C0,2179,24521,Austral Newsagency, ,255 Edmondson Ave,Austral,NSW,158,"255 Edmondson Ave, Austral NSW 2179",02 9606 9108,-33.932714,150.812463,true,OPAL,Get an Opal card or top up. Contact outlet for shop accessibility.,24521
0101000020E6100000C42A34C905E06240514DB67210ED40C0,2161,24522,Fays Supermarket,,174-176 Excelsior St,Guilford,NSW,159,"174-176 Excelsior St, Guilford NSW 2161",02 9892 2461,-33.852064456,151.000706293,true,OPAL,Get an Opal card or top up. Contact outlet for shop accessibility.,24522
0101000020E6100000CD0F592D5BE0624098DB925C0BEB40C0,2142,24523,Westside Petroleum Granville,,2 Blaxcell St,Granville,NSW,160,"2 Blaxcell St, Granville NSW 2142",02 9637 5690,-33.836284229,151.011130022,true,OPAL,Get an Opal card or top up. Contact outlet for shop accessibility.,24523
0101000020E6100000EB909BE106E06240B4CBB73EACED40C0,2161,24525,Supa Save Store Guildford, ,88 Guildford Rd,Guildford,NSW,161,"88 Guildford Rd, Guildford NSW 2161",0402 408 574,-33.856819,151.00084,true,OPAL,Get an Opal card or top up. Contact outlet for shop accessibility.,24525
0101000020E6100000AD6D8AC745D9624099D9E731CAE540C0,2759,24530,CTC St Clair, ,155 Bennett Rd,St Clair,NSW,163,"155 Bennett Rd, St Clair NSW 2759",02 9834 5156,-33.795233,150.789768,true,OPAL,Get an Opal card or top up. Contact outlet for shop accessibility.,24530
0101000020E61000005A9D9CA138D76240581EA4A7C8E140C0,2747,24532,Manning Street Convenience Store,Shop 2,1 Manning St,Kingswood,NSW,164,"1 Manning St, Kingswood NSW 2747",02 4736 6975,-33.763936,150.725663,true,OPAL,Get an Opal card or top up. Contact outlet for shop accessibility.,24532
0101000020E610000016F9F5436CDD62406F4562821AE440C0,2148,24533,St Martins Village Newsagency, ,6 St Martins Cres,Blacktown,NSW,165,"6 St Martins Cres, Blacktown NSW 2148",02 9676 8432,-33.782059,150.919466,true,OPAL,Get an Opal card or top up. Contact outlet for shop accessibility.,24533
0101000020E6100000B43EA37C9AD86240FEA017B6F20541C0,2567,24535,IGA Currans Hills,,5 Jando Way,Currans Hill,NSW,166,"5 Jando Way, Currans Hill NSW 2567",02 4648 1563,-34.046469461,150.76885826,true,OPAL,Get an Opal card or top up. Contact outlet for shop accessibility.,24535
0101000020E610000067DFCB33F5DA6240719DEE58460941C0,2560,24538,Ruse Village Newsagency,Ruse Village Shopping Centre,Junction Rd,Ruse,NSW,167,"Junction Rd, Ruse NSW 2560",02 4627 6149,-34.072459332,150.842431925,true,OPAL,Get an Opal card or top up. Contact outlet for shop accessibility.,24538
0101000020E6100000E273F79E99DC6240D094174541E140C0,2148,24541,Lyton Mini Mart,,20 Lyton St,Blacktown,NSW,168,"20 Lyton St, Blacktown NSW 2148",02 8678 2006,-33.759804379,150.893752559,true,OPAL,Get an Opal card or top up. Contact outlet for shop accessibility.,24541
0101000020E6100000310400C71EDD6240F6B3588AE4EC40C0,2164,24542,Wetherill Park Newsagency, ,1024 The Horsley Dr,Wetherill Park,NSW,169,"1024 The Horsley Dr, Wetherill Park NSW 2164",02 9604 0300,-33.8507245,150.910007,true,OPAL,Get an Opal card or top up. Contact outlet for shop accessibility.,24542
0101000020E610000001A60C1CD0D66240C43E011423DF40C0,2750,24544,TSG Kingswood,"Shop 6, Marketland Shopping Centre",7-11 Caloola Ave,Penrith,NSW,170,"Marketland Shopping Centre, 7-11 Caloola Ave, Penrith NSW 2750",02 4732 6895,-33.743258,150.712904,true,OPAL,Get an Opal card or top up. Contact outlet for shop accessibility.,24544
0101000020E6100000CBA2B08BA2D862404F5C8E5720E240C0,2760,24547,King of the Pack St Marys,Shop 35,87 Charles Hackett Dr,St Marys,NSW,171,"87 Charles Hackett Dr, St Marys NSW 2760",02 9673 0309,-33.766612,150.769842,true,OPAL,Get an Opal card or top up. Contact outlet for shop accessibility.,24547
0101000020E61000009ACE4E06C7DC62400069FF03ACFF40C0,2564,24549,Macquarie Fields Neighbourhood Store, ,11 Evelyn St,Macquarie Fields,NSW,172,"11 Evelyn St, Macquarie Fields NSW 2564",02 9605 5624,-33.997437,150.899295,true,OPAL,Get an Opal card or top up. Contact outlet for shop accessibility.,24549
0101000020E6100000A30743BF84DC6240D582650CB6ED40C0,2176,24550,Bossley Park General Store & Deli, ,53-59 Mimosa Rd,Bossley Park,NSW,173,"53-59 Mimosa Rd, Bossley Park NSW 2176",02 9610 7669,-33.857118177,150.891204482,true,OPAL,Get an Opal card or top up. Contact outlet for shop accessibility.,24550
0101000020E6100000874E32E63CDA62405B13FE51430341C0,2566,24552,Raby Newsagency,"Shop 8, Raby Shopping Centre",Cnr Spitfire Dr & Hurricane Dr,Raby,NSW,174,"Raby Shopping Centre, Cnr Spitfire Dr & Hurricane Dr, Raby NSW 2566",02 9824 7080,-34.025491952,150.819933985,true,OPAL,Get an Opal card or top up. Contact outlet for shop accessibility.,24552
0101000020E61000002BFA4333CFD8624021EA3E00A9E340C0,2760,24554,Andrews Corner Store, ,89 Monfarville St,St Marys,NSW,175,"89 Monfarville St, St Marys NSW 2760",02 9623 5030,-33.778595,150.775293,true,OPAL,Get an Opal card or top up. Contact outlet for shop accessibility.,24554
0101000020E6100000D76B7A50D0DB6240166A4DF38EF340C0,2168,24557,Green Valley Newsagency, ,174 Green Valley Rd,Green Valley,NSW,177,"174 Green Valley Rd, Green Valley NSW 2168",02 9607 8472,-33.9028,150.869179,true,OPAL,Get an Opal card or top up. Contact outlet for shop accessibility.,24557
0101000020E6100000CF5831E5FED962404361061977E240C0,2770,24560,Smokes & Sweets, ,2 Innes Cres,Mount Druitt,NSW,178,"2 Innes Cres, Mount Druitt NSW 2770",02 9625 4456,-33.769259575,150.812365147,true,OPAL,Get an Opal card or top up. Contact outlet for shop accessibility.,24560
0101000020E61000005ED89AAD3CD96240D1915CFE43E240C0,2760,24561,Foodstop Supermarket & News, ,40 Sydney St,St Marys,NSW,179,"40 Sydney St, St Marys NSW 2760",02 9673 6233,-33.7677,150.788657,true,OPAL,Get an Opal card or top up. Contact outlet for shop accessibility.,24561
0101000020E610000039EFFFE304D76240D5390664AFDF40C0,2747,24564,Convenience Cambridge Park, ,148 Oxford St,Cambridge Park,NSW,180,"148 Oxford St, Cambridge Park NSW 2747",02 4721 2049,-33.74754,150.719347,true,OPAL,Get an Opal card or top up. Contact outlet for shop accessibility.,24564
0101000020E6100000DEAB56267CD66240FEEE1D3526E240C0,2750,24568,South Penrith Newsagency,Shop 1,157 Smith St,South Penrith,NSW,181,"157 Smith St, South Penrith NSW 2750",02 4732 4587,-33.766791,150.702655,true,OPAL,Get an Opal card or top up. Contact outlet for shop accessibility.,24568
0101000020E6100000F1E6BA3A51D6624064062AE3DF0641C0,2570,24569,Wincamden Newsagency, ,49 Argyle St,Camden,NSW,182,"49 Argyle St, Camden NSW 2570",02 4655 6256,-34.0537075,150.6974157,true,OPAL,Get an Opal card or top up. Contact outlet for shop accessibility.,24569
0101000020E61000008D7E349CB2DC6240A4880CAB78F340C0,2170,24572,Speedway Meadows, ,365 Elizabeth Dr,Mount Pritchard,NSW,183,"365 Elizabeth Dr, Mount Pritchard NSW 2170",02 9610 4541,-33.90212,150.896803,true,OPAL,Get an Opal card or top up. Contact outlet for shop accessibility.,24572
0101000020E6100000E9EBF99AE5D9624069A8514832DF40C0,2770,24573,Emerton Newsagency,"Shop 10, Emerton Village",Bunting St,Emerton,NSW,184,"Emerton Village, Bunting St, Emerton NSW 2770",02 9628 1868,-33.743722,150.809278,true,OPAL,Get an Opal card or top up. Contact outlet for shop accessibility.,24573
0101000020E61000000C079D6B73DE6240117AEC1D24EA40C0,2145,24574,Greystanes Newsagency, ,665 Merrylands Rd,Greystanes,NSW,185,"665 Merrylands Rd, Greystanes NSW 2145",02 9631 6032,-33.8292272,150.9515894,true,OPAL,Get an Opal card or top up. Contact outlet for shop accessibility.,24574
0101000020E61000007B849A21D5DB62408692C9A99DE140C0,2767,24575,Doonside Newsagency, ,21 Hill End Rd,Doonside,NSW,186,"21 Hill End Rd, Doonside NSW 2767",02 9622 1141,-33.762624,150.869767,true,OPAL,Get an Opal card or top up. Contact outlet for shop accessibility.,24575
0101000020E61000004A92456C70DD6240414ACBCCF5DB40C0,2768,24576,Cigarettes Tobacco Cigars,"Shop 5, Stanhope Shopping Centre",2 Sentry Dr,Stanhope Gardens,NSW,187,"Shop 5, Stanhope Shopping Centre, 2 Sentry Dr, Stanhope Gardens NSW 2768",02 8883 0455,-33.71843872,150.919973503,true,OPAL,Get an Opal card or top up. Contact outlet for shop accessibility.,24576
0101000020E61000000725CCB4FDDE624034D1E7A38CEA40C0,2160,24577,Freechoice Tobacconist Merrylands West,Shop 6,530 Merrylands Rd,Merrylands West,NSW,188,"530 Merrylands Rd, Merrylands West NSW 2160",02 9636 4302,-33.832417,150.96847,true,OPAL,Get an Opal card or top up. Contact outlet for shop accessibility.,24577
0101000020E610000029E8F69246DC6240520ABABDA4F540C0,2168,24580,Freechoice Tobacconist Miller,"Kiosk 1, Miller Shopping Centre",90 Cartwright Ave,Miller,NSW,189,"Miller Shopping Centre, 90 Cartwright Ave, Miller NSW 2168",02 9607 9424,-33.91909,150.883615,true,OPAL,Get an Opal card or top up. Contact outlet for shop accessibility.,24580
0101000020E6100000A944D95BCADA62404F90D8EE1EDE40C0,2761,24581,TSG Hassall Grove, ,211 Buckwell Dr,Hassall Grove,NSW,190,"211 Buckwell Dr, Hassall Grove NSW 2761",02 9628 9734,-33.735319,150.837202,true,OPAL,Get an Opal card or top up. Contact outlet for shop accessibility.,24581
0101000020E61000009455B3FC90D76240483C0EC05C0541C0,2567,24582,Narellan Newsagency,"Shop 33, Narellan Town Centre",,Narellan,NSW,191,"Narellan Town Centre, Narellan NSW 2567",02 4646 1045,-34.041893012,150.736448622,true,OPAL,Get an Opal card or top up. Contact outlet for shop accessibility.,24582
0101000020E61000001F0E12A27CDC6240F984ECBC8DEF40C0,2176,24584,CTC Greenfield Park, ,260 Mimosa Rd,Greenfield Park,NSW,192,"260 Mimosa Rd, Greenfield Park NSW 2176",02 9610 2506,-33.871513,150.890214,true,OPAL,Get an Opal card or top up. Contact outlet for shop accessibility.,24584
0101000020E61000004813D663BEDB6240DD6639EF90FF40C0,2565,24586,Ingleburn Fair Newsagency,Ingleburn Fair Shopping Centre,104 Macquarie Rd ,Ingleburn,NSW,193,"Ingleburn Fair Shopping Centre, 104 Macquarie Rd, Ingleburn NSW 2565",02 9605 6086,-33.996610549,150.866990965,true,OPAL,Get an Opal card or top up. Contact outlet for shop accessibility.,24586
0101000020E610000007DFAD8CD3DE62402A3F4B85A8EB40C0,2161,24588,Speedway Woodpark,,32 Woodpark Rd,Guildford,NSW,194,"32 Woodpark Rd, Guildford NSW 2161",02 9681 3228,-33.841080343,150.963323917,true,OPAL,Get an Opal card or top up. Contact outlet for shop accessibility.,24588
0101000020E6100000B43A394371E562403481221631E840C0,2066,24595,Convenience At The Cove, ,114 Longueville Rd,Lane Cove,NSW,195,"114 Longueville Rd, Lane Cove NSW 2066",02 9420 0888,-33.813998,151.170076,true,OPAL,Get an Opal card or top up. Contact outlet for shop accessibility.,24595
0101000020E61000002E80DF756CE662402CFF10D19EE940C0,2065,24598,Crows Nest Newsagency, ,86 Willoughby Rd,Crows Nest,NSW,196,"86 Willoughby Rd, Crows Nest NSW 2065",02 9436 2685,-33.8251592,151.2007398,true,OPAL,Get an Opal card or top up. Contact outlet for shop accessibility.,24598
0101000020E610000046F185244EE46240D731AEB838E940C0,2111,24600,Casamento Newsagency, ,107 Pittwater Rd,Hunters Hill,NSW,197,"107 Pittwater Rd, Hunters Hill NSW 2111",02 9817 3847,-33.8220435,151.1345389,true,OPAL,Get an Opal card or top up. Contact outlet for shop accessibility.,24600
0101000020E610000065E3C116BBE06240F7E978CC40E340C0,2153,24601,North Rocks Budget Petrol,,264-266 North Rocks Rd,North Rocks,NSW,198,"264-266 North Rocks Rd, North Rocks NSW 2153",,-33.775415,151.022838,true,OPAL,Get an Opal card or top up. Contact outlet for shop accessibility.,24601
0101000020E610000046FEAA6DD4E66240AE0FEB8D5AEB40C0,2060,24602,Clark Rd Newsagency, ,66 Clark Rd,North Sydney,NSW,199,"66 Clark Rd, North Sydney NSW 2060",02 9955 1511,-33.838701,151.2134312,true,OPAL,Get an Opal card or top up. Contact outlet for shop accessibility.,24602
0101000020E6100000E5D5390664E36240A335069D10E840C0,2112,24603,Top Ryde City Newsagency,Top Ryde City,Cnr Devlin St & Blaxland Rd,Ryde,NSW,200,"Top Ryde City, Cnr Devlin St & Blaxland Rd, Ryde NSW 2112",02 9807 4205,-33.813007,151.10596,true,OPAL,Get an Opal card or top up. Contact outlet for shop accessibility.,24603
0101000020E61000003953D790AEE162400B57AC8669E340C0,2118,24609,Carlingford Court Newsagency,Carlingford Court,Pennant Hills Rd,Carlingford,NSW,201,"Carlingford Court, Pennant Hills Rd, Carlingford NSW 2118",02 9871 6015,-33.7766579,151.0525593,true,OPAL,Get an Opal card or top up. Contact outlet for shop accessibility.,24609
0101000020E61000005E9B32DCA5E662405EE62ACC31F040C0,2000,24612,City Convenience Store Pitt St, ,379 Pitt St,Sydney,NSW,202,"379 Pitt St, Sydney NSW 2000",02 9267 4217,-33.8765197,151.2077466,true,OPAL,Get an Opal card or top up. Contact outlet for shop accessibility.,24612
0101000020E6100000832D1B42BAE66240A2105C40C3EE40C0,2000,24628,Bligh Convenience Store, ,23 Bligh St,Sydney,NSW,203,"23 Bligh St, Sydney NSW 2000",02 9223 3089,-33.8653336,151.2102366,true,OPAL,Get an Opal card or top up. Contact outlet for shop accessibility.,24628
0101000020E61000005DD7D41E9BE662409D4CDC2A88F040C0,2000,25185,City South Convenience Store, ,22 Campbell St,Haymarket,NSW,260,"22 Campbell St, Haymarket NSW 2000",02 9280 3289,-33.8791555,151.2064356,true,OPAL,Get an Opal card or top up. Contact outlet for shop accessibility.,25185
0101000020E610000045813E91A7E66240FCE25295B6EE40C0,2000,24633,Australia Square Newsagency,"Level 4, Australia Square",264-278 George St,Sydney,NSW,204,"Level 4, Australia Square, 264-278 George St, Sydney NSW 2000",02 9247 5882,-33.864947,151.207955,true,OPAL,Get an Opal card or top up. Contact outlet for shop accessibility.,24633
0101000020E61000003C670B08ADE66240F9BCE2A947F040C0,2000,24634,City Convenience Store Castlereagh St, ,265 Castlereagh St,Sydney,NSW,205,"265 Castlereagh St, Sydney NSW 2000",02 9267 7244,-33.877187,151.208622,true,OPAL,Get an Opal card or top up. Contact outlet for shop accessibility.,24634
0101000020E6100000784CEEC1B5E66240364305E2D0EF40C0,2000,24635,The Lucky Charm, ,201 Elizabeth St,Sydney,NSW,206,"201 Elizabeth St, Sydney NSW 2000",02 9286 3599,-33.8735621,151.2096872,true,OPAL,Get an Opal card or top up. Contact outlet for shop accessibility.,24635
0101000020E6100000BDE48E1D85E662406193FD3F83EE40C0,2000,24640,City Convenience Store Kent St, ,189 Kent St,Sydney,NSW,207,"189 Kent St, Sydney NSW 2000",02 9252 2238,-33.863380431,151.203749446,true,OPAL,Get an Opal card or top up. Contact outlet for shop accessibility.,24640
0101000020E6100000D7338463D6E6624007DF45A9CEEB40C0,2060,24651,North Shore Supermarket, ,54 High St,North Sydney,NSW,208,"54 High St, North Sydney NSW 2060",02 9959 3008,-33.8422443,151.2136705,true,OPAL,Get an Opal card or top up. Contact outlet for shop accessibility.,24651
0101000020E6100000B360E28FA2E6624061A7583508F140C0,2000,24652,Sydney Central Mini Mart,Central Station,Eddy Ave,Haymarket,NSW,209,"Central Station, Eddy Ave, Haymarket NSW 2000",02 9212 7022,-33.883063,151.207344,true,OPAL,Get an Opal card or top up. Contact outlet for shop accessibility.,24652
0101000020E6100000E0BAE67E9CE6624023CBAF0AC7EE40C0,2000,24654,EzyMart Menzies Wynyard,,2-14 Carrington St,Sydney,NSW,210,"2-14 Carrington St, Sydney NSW 2000",02 8068 2632,-33.865449272,151.20660348,true,OPAL,Get an Opal card or top up. Contact outlet for shop accessibility.,24654
0101000020E6100000FBB1497EC4E762408BBB41B456F040C0,2028,24657,The Village Newsagency, ,366 New South Head Rd,Double Bay,NSW,211,"366 New South Head Rd, Double Bay NSW 2028",02 9327 1883,-33.877646,151.242736,true,OPAL,Get an Opal card or top up. Contact outlet for shop accessibility.,24657
0101000020E6100000DDB06D51A6E66240CC553DAAABEB40C0,2060,24667,North Sydney Express, ,15 Blue St,North Sydney,NSW,212,"15 Blue St, North Sydney NSW 2060",02 8021 2455,-33.8411763,151.2078025,true,OPAL,Get an Opal card or top up. Contact outlet for shop accessibility.,24667
0101000020E6100000C284D1AC6CE86240A298BC0166F240C0,2026,24674,CTC Bondi Rd, ,210 Bondi Rd,Bondi,NSW,213,"210 Bondi Rd, Bondi NSW 2026",02 9386 9897,-33.893738,151.263266,true,OPAL,Get an Opal card or top up. Contact outlet for shop accessibility.,24674
0101000020E6100000C88AAFB01FEA6240B6618ECA3FD240C0,2107,24693,Bilgola Four Square Store,Shop 1/9 ,Bilambee Ave,Bilgola Plateau,NSW,214,"Shop 1/9 Bilambee Ave, Bilgola Plateau NSW 2107",02 9918 5426,-33.642571754,151.31636843,true,OPAL,Get an Opal card or top up. Contact outlet for shop accessibility.,24693
0101000020E6100000AB0FDA6102E862409C40C7FDFDE140C0,2100,24698,Allambie Heights Newsagency, ,5/151 Allambie Rd,Allambie Heights,NSW,215,"5/151 Allambie Rd, Allambie Heights NSW 2100",02 9451 5448,-33.7655637,151.2502908,true,OPAL,Get an Opal card or top up. Contact outlet for shop accessibility.,24698
0101000020E61000001820D1040AE862407BA01518B2E440C0,2093,24710,North Balgowlah Newsagency, ,44 Woodbine St,North Balgowlah,NSW,216,"44 Woodbine St, North Balgowlah NSW 2093",02 9949 6094,-33.786685,151.251223,true,OPAL,Get an Opal card or top up. Contact outlet for shop accessibility.,24710
0101000020E61000003C11C47938E46240BE326FD575F440C0,2193,24711,Rite-Way Supermarkets, ,8 Crinan St,Hurlstone Park,NSW,217,"8 Crinan St, Hurlstone Park NSW 2193",02 9559 1178,-33.909846,151.131894,true,OPAL,Get an Opal card or top up. Contact outlet for shop accessibility.,24711
0101000020E61000006A8479ED54F36240295B1F344D9140C0,2281,24730,Nords Wharf Newsagency,,51 Marine Pde,Nords Wharf,NSW,218,"51 Marine Pde, Nords Wharf NSW 2281",02 4976 1240,-33.135168567,151.604117143,true,OPAL,Get an Opal card or top up. Contact outlet for shop accessibility.,24730
0101000020E61000007A1FA22C17E26240D6D0BCD2E8DF40C0,2119,24810,Beecroft Newsagency,Beecroft Village,6-8 Hannah St,Beecroft,NSW,219,"Beecroft Village, 6-8 Hannah St, Beecroft NSW 2119",02 9484 1466,-33.7492927,151.0653289,true,OPAL,Get an Opal card or top up. Contact outlet for shop accessibility.,24810
0101000020E610000026F5AFF641E26240BA7A5FA637F940C0,2209,24813,Narwee Newsagency, ,159 Penshurst Rd,Narwee,NSW,220,"159 Penshurst Rd, Narwee NSW 2209",02 9153 8358,-33.9470108,151.0705522,true,OPAL,Get an Opal card or top up. Contact outlet for shop accessibility.,24813
0101000020E6100000973C9E969FE26240EADED4511FE540C0,2122,24814,Eastwood Railway Bookstall, ,16A West Pde,Eastwood,NSW,221,"16A West Pde, Eastwood NSW 2122",02 9874 5559,-33.7900183,151.081981,true,OPAL,Get an Opal card or top up. Contact outlet for shop accessibility.,24814
0101000020E610000087F2758151E362407E1EE2A076F440C0,2194,24815,Campsie North Newsagency, ,195 Beamish St,Campsie,NSW,222,"195 Beamish St, Campsie NSW 2194",02 9718 2828,-33.909870253,151.103699427,true,OPAL,Get an Opal card or top up. Contact outlet for shop accessibility.,24815
0101000020E610000012F2E61574E662400525BB88A5F340C0,2015,24816,Hudson Convenience, ,1A Mandible St,Alexandria,NSW,223,"1A Mandible St, Alexandria NSW 2015",02 8399 0610,-33.9034892,151.2016706,true,OPAL,Get an Opal card or top up. Contact outlet for shop accessibility.,24816
0101000020E61000004D9F1D70DDE26240844BC79C67E840C0,2114,24824,Meadowbank Convenience Store, ,27 Bank St,Meadowbank,NSW,224,"27 Bank St, Meadowbank NSW 2114",02 9809 6541,-33.815662,151.089531,true,OPAL,Get an Opal card or top up. Contact outlet for shop accessibility.,24824
0101000020E610000009F02774E8E26240F67931395AE740C0,2114,24832,West Ryde Convenience Plus, ,33 Ryedale Rd,West Ryde,NSW,225,"33 Ryedale Rd, West Ryde NSW 2114",02 9807 5102,-33.8074409,151.0908757,true,OPAL,Get an Opal card or top up. Contact outlet for shop accessibility.,24832
0101000020E61000000116F9F5C3E26240623A634E86EC40C0,2138,24833,Concord West Supermarket, ,33 Victoria Ave,Concord West,NSW,226,"33 Victoria Ave, Concord West NSW 2138",02 9743 4101,-33.8478487,151.086421,true,OPAL,Get an Opal card or top up. Contact outlet for shop accessibility.,24833
0101000020E6100000FCD2ECCBA3E66240A8A4F386A0EB40C0,2060,24838,Cignall Greenwood,Greenwood Plaza,36 Blue St,North Sydney,NSW,227,"Greenwood Plaza, 36 Blue St, North Sydney NSW 2060",02 9956 6515,-33.8408364,151.2074947,true,OPAL,Get an Opal card or top up. Contact outlet for shop accessibility.,24838
0101000020E6100000D7C43C0A0BE16240B7DB56FCE4F940C0,2211,24843,Padstow Tobacconist & Gifts,,45 Howard Rd,Padstow,NSW,228,"45 Howard Rd, Padstow NSW 2211",,-33.952300589,151.032597655,true,OPAL,Get an Opal card or top up. Contact outlet for shop accessibility.,24843
0101000020E6100000D553F53C09E362401469D1F187EF40C0,2135,24848,J & W Newsagency, ,58 Mosely St,Strathfield,NSW,229,"58 Mosely St, Strathfield NSW 2135",02 9747 5493,-33.8713362,151.0948777,true,OPAL,Get an Opal card or top up. Contact outlet for shop accessibility.,24848
0101000020E6100000C97F3793A5ED6240FE648C0FB3A440C0,2259,24850,Carmichael's Corner Store, ,6 Warner Ave,Wyong,NSW,230,"6 Warner Ave, Wyong NSW 2259",02 4352 1505,-33.2867145,151.4264618,true,OPAL,Get an Opal card or top up. Contact outlet for shop accessibility.,24850
0101000020E610000058552FBF53E66240EB5223F433EB40C0,2060,24859,Four Square Waverton, ,94 Bay Rd,Waverton,NSW,231,"94 Bay Rd, Waverton NSW 2060",02 9955 1900,-33.837523,151.197723,true,OPAL,Get an Opal card or top up. Contact outlet for shop accessibility.,24859
0101000020E6100000AB4901B38CE662408478C9A42BF040C0,2000,25194,City Convenience Store Sussex St, ,368 Sussex St,Sydney,NSW,261,"368 Sussex St, Sydney NSW 2000",02 9283 8129,-33.8763319,151.2046752,true,OPAL,Get an Opal card or top up. Contact outlet for shop accessibility.,25194
0101000020E6100000ED28CE51C7E36240B6BFB33D7AE340C0,2113,24863,Fast & Ezy Macquarie Park,Macquarie University Station,Cnr Herring Rd & Waterloo Rd,Macquarie Park,NSW,232,"Macquarie University Station, Cnr Herring Rd & Waterloo Rd, Macquarie Park NSW 2113",02 9889 2811,-33.777168,151.118081,true,OPAL,Get an Opal card or top up. Contact outlet for shop accessibility.,24863
0101000020E610000041F0F8F6AEE36240889E94490DF140C0,2132,24864,Croydon Railway Bookstore,Croydon Station,Cnr Meta Rd & Paisley Rd,Croydon,NSW,233,"Croydon Station, Cnr Meta Rd & Paisley Rd, Croydon NSW 2132",0424 123 778,-33.883218,151.115108,true,OPAL,Get an Opal card or top up. Contact outlet for shop accessibility.,24864
0101000020E61000001360B3B7EFE5624091A5C5CF35F340C0,2043,24865,Erskineville Railway Bookstall,Erskineville Station,Erskineville Rd,Erskineville,NSW,234,"Erskineville Station, Erskineville Rd, Erskineville NSW 2043",02 9519 8824,-33.9000797,151.1855124,true,OPAL,Get an Opal card or top up. Contact outlet for shop accessibility.,24865
0101000020E6100000DBE044F46BE562408FB63BB544E340C0,2070,24866,Lindfield Railway Bookstall,Lindfield Station,Lindfield Ave,Lindfield,NSW,235,"Lindfield Station, Lindfield Ave, Lindfield NSW 2070",02 9416 8855,-33.7755343,151.169428,true,OPAL,Get an Opal card or top up. Contact outlet for shop accessibility.,24866
0101000020E61000004E2D115EB1E56240ED235C6D6AE440C0,2069,24869,San Peaks Book Store,Roseville Station,Hill St,Roseville,NSW,236,"Roseville Station, Hill St, Roseville NSW 2069",02 8084 5968,-33.7844979,151.1779013,true,OPAL,Get an Opal card or top up. Contact outlet for shop accessibility.,24869
0101000020E61000004EEBDBEE4AE36240AAB46A7CCBFB40C0,2220,24884,Station Newsagency Hurstville, ,225 Forest Rd,Hurstville,NSW,237,"225 Forest Rd, Hurstville NSW 2220",02 9579 1968,-33.9671474,151.1028971,true,OPAL,Get an Opal card or top up. Contact outlet for shop accessibility.,24884
0101000020E610000038B3A72E6AE16240A8FDD64E94EE40C0,2141,24899,A & C Mixed Business, ,62 Railway St,Lidcombe,NSW,238,"62 Railway St, Lidcombe NSW 2141",02 9738 9003,-33.863901,151.0442117,true,OPAL,Get an Opal card or top up. Contact outlet for shop accessibility.,24899
0101000020E610000030CE29129DDF6240BCB0355B79E740C0,2145,24907,Westmead Railway Bookstore,Westmead Station,Railway Pde,Westmead,NSW,239,"Westmead Station, Railway Pde, Westmead NSW 2145",0404 368 362,-33.808391,150.9879237,true,OPAL,Get an Opal card or top up. Contact outlet for shop accessibility.,24907
0101000020E6100000055DB1759FE66240A9893E1F65F940C0,2019,24908,Botany Corner Store, ,1 Trevelyan St,Botany,NSW,240,"1 Trevelyan St, Botany NSW 2019",02 9316 9624,-33.9483985,151.2069653,true,OPAL,Get an Opal card or top up. Contact outlet for shop accessibility.,24908
0101000020E61000007A9B487AA2E862406F5A3A30CAF140C0,2026,24913,Oz 5 Convenience Store, ,19-23 O'Brien St,Bondi Beach,NSW,241,"19-23 O'Brien St, Bondi Beach NSW 2026",02 9130 8578,-33.8889828,151.2698337,true,OPAL,Get an Opal card or top up. Contact outlet for shop accessibility.,24913
0101000020E6100000C3F759C01FE86240533C2EAA45F340C0,2024,24914,Waverley One Stop Convenience, ,244-246 Bronte Rd,Waverley,NSW,242,"244-246 Bronte Rd, Waverley NSW 2024",02 9387 8838,-33.9005635,151.2538759,true,OPAL,Get an Opal card or top up. Contact outlet for shop accessibility.,24914
0101000020E6100000D4C55C08E8E56240DD1B8D8D8AE740C0,2064,26275,7-Eleven Artarmon, ,92 Hampden Rd,Artarmon,NSW,349,"92 Hampden Rd, Artarmon NSW 2064",02 9904 7264,-33.8089158,151.1845743,true,OPAL,Get an Opal card or top up. Contact outlet for shop accessibility.,26275
0101000020E61000009264671B49E76240687A89B14CF640C0,2032,24915,Kingsford Bus Stop Newsagency, ,371 Anzac Pde,Kingsford,NSW,243,"371 Anzac Pde, Kingsford NSW 2032",02 9663 2101,-33.9242155,151.2276742,true,OPAL,Get an Opal card or top up. Contact outlet for shop accessibility.,24915
0101000020E6100000B1EE395F95E662406D123AEA93F440C0,2018,24917,Hafna Convenience Store,,"Shop 5, 29-37 Epsom Rd",Rosebery,NSW,244,"29-37 Epsom Rd, Rosebery NSW 2018",02 9662 4728,-33.910764006,151.205733884,true,OPAL,Get an Opal card or top up. Contact outlet for shop accessibility.,24917
0101000020E610000093D4AEAEEFE76240A7F809B144F440C0,2031,24918,The Corner Store Randwick, ,38 Frenchmans Rd,Randwick,NSW,245,"38 Frenchmans Rd, Randwick NSW 2031",02 9398 6503,-33.9083463,151.2480081,true,OPAL,Get an Opal card or top up. Contact outlet for shop accessibility.,24918
0101000020E61000003ED7AD5446E86240DB6D179AEBF340C0,2024,24925,The Friendly Store, ,61-63 Macpherson St,Waverley,NSW,246,"61-63 Macpherson St, Waverley NSW 2024",02 9389 1703,-33.9056275,151.2585853,true,OPAL,Get an Opal card or top up. Contact outlet for shop accessibility.,24925
0101000020E61000007016E588ABE76240451559C6E1F440C0,2031,24930,City Convenience Store Randwick, ,9 Belmore Rd,Randwick,NSW,247,"9 Belmore Rd, Randwick NSW 2031",02 9398 8900,-33.9131401,151.2396893,true,OPAL,Get an Opal card or top up. Contact outlet for shop accessibility.,24930
0101000020E6100000520ABABD24DF6240F864C57075E840C0,2145,24937,Amayzing Cakes & Slices, ,15 Bransgrove St,Wentworthville,NSW,248,"15 Bransgrove St, Wentworthville NSW 2145",02 9633 3039,-33.816084,150.973235,true,OPAL,Get an Opal card or top up. Contact outlet for shop accessibility.,24937
0101000020E6100000DE0033DFC1E4624046B41D5377E340C0,2070,24946,West Lindfield Newsagency, ,18 Moore Ave,Lindfield,NSW,249,"18 Moore Ave, Lindfield NSW 2070",02 9416 4981,-33.777079,151.148666,true,OPAL,Get an Opal card or top up. Contact outlet for shop accessibility.,24946
0101000020E6100000FD8C66C0B4E462404233993B44DB40C0,2074,24958,North Turramurra Newsagency, ,286 Bobbin Head Rd,North Turramurra,NSW,250,"286 Bobbin Head Rd, North Turramurra NSW 2074",02 9144 3872,-33.7130198,151.1470644,true,OPAL,Get an Opal card or top up. Contact outlet for shop accessibility.,24958
0101000020E6100000446CB07012F56240E82D1EDE736640C0,2322,25006,Beresfield Newsagency, ,Cnr Addison St & Lawson Ave,Beresfield,NSW,251,"Cnr Addison St & Lawson Ave, Beresfield NSW 2322",02 4966 1178,-32.800411,151.658501,true,OPAL,Get an Opal card or top up. Contact outlet for shop accessibility.,25006
0101000020E6100000643843160EF96240F9B605F0BB7640C0,2300,25017,Newcastle CBD Newsagency, ,79 Hunter St,Newcastle,NSW,252,"79 Hunter St, Newcastle NSW 2300",02 4929 5230,-32.9276104,151.7829696,true,OPAL,Get an Opal card or top up. Contact outlet for shop accessibility.,25017
0101000020E6100000AD3DA2F8E7E46240DD596034D0F340C0,2204,25026,Town Convenience Store, ,132 Livingstone Rd,Marrickville,NSW,253,"132 Livingstone Rd, Marrickville NSW 2204",02 9572 8968,-33.9047914,151.1533168,true,OPAL,Get an Opal card or top up. Contact outlet for shop accessibility.,25026
0101000020E610000084E453B6FEE56240648918C0A5F040C0,2037,25030,IGA Glebe, ,215 Glebe Point Rd,Glebe,NSW,254,"215 Glebe Point Rd, Glebe NSW 2037",02 9660 3714,-33.8800583,151.1873428,true,OPAL,Get an Opal card or top up. Contact outlet for shop accessibility.,25030
0101000020E610000088516BF5F0E36240ED269DED76E740C0,2112,25104,Good Neighbour Mixed Business, ,4 Callaghan St,Ryde,NSW,255,"4 Callaghan St, Ryde NSW 2112",02 9878 1396,-33.8083169,151.1231639,true,OPAL,Get an Opal card or top up. Contact outlet for shop accessibility.,25104
0101000020E610000068C1D54B5DE662403F9E020583E640C0,2068,25109,Hawthorne Newsagency, ,81 Penshurst St,Willoughby,NSW,256,"81 Penshurst St, Willoughby NSW 2068",02 9958 8447,-33.8008734,151.1988887,true,OPAL,Get an Opal card or top up. Contact outlet for shop accessibility.,25109
0101000020E61000003C4F3C678BD962405BAB8779A00941C0,2560,25131,Nextra Macarthur Square,Macarthur Square,200 Gilchrist Dr,Campbelltown,NSW,257,"Macarthur Square, 200 Gilchrist Dr, Campbelltown NSW 2560",02 4626 3613,-34.0752098,150.798267,true,OPAL,Get an Opal card or top up. Contact outlet for shop accessibility.,25131
0101000020E6100000E962D34AA1E66240CCEEC9C342EE40C0,2000,25180,Harrington Convenience Store, ,109 Harrington St,The Rocks,NSW,258,"109 Harrington St, The Rocks NSW 2000",02 9252 7899,-33.8614125,151.207189,true,OPAL,Get an Opal card or top up. Contact outlet for shop accessibility.,25180
0101000020E61000003C2C531A91E6624030735903D6F040C0,2000,25181,EzyMart Rawson Place,Shop 3,11-23 Rawson Pl,Haymarket,NSW,259,"11-23 Rawson Pl, Haymarket NSW 2000",02 9211 8415,-33.881531161,151.205212748,true,OPAL,Get an Opal card or top up. Contact outlet for shop accessibility.,25181
0101000020E61000002C4C3A25BBE662409C0F7459F1EE40C0,2000,25196,Chifley Arcade Newsagency, ,4 Castlereagh St,Sydney,NSW,262,"4 Castlereagh St, Sydney NSW 2000",02 9233 3418,-33.8667404,151.2103449,true,OPAL,Get an Opal card or top up. Contact outlet for shop accessibility.,25196
0101000020E610000008B8D6CD7BE662406E707DB328F140C0,2000,25207,City Convenience Store Sydney,Ground Floor,822 George St,Chippendale,NSW,263,"Ground Floor, 822 George St, Chippendale NSW 2000",02 9281 9466,-33.8840546,151.2026128,true,OPAL,Get an Opal card or top up. Contact outlet for shop accessibility.,25207
0101000020E61000002486D3388AE6624001D3B36A21EF40C0,2000,25224,Kent City News, ,333 Kent St,Sydney,NSW,264,"333 Kent St, Sydney NSW 2000",02 9299 5370,-33.8682073,151.2043728,true,OPAL,Get an Opal card or top up. Contact outlet for shop accessibility.,25224
0101000020E61000002420706EDDE56240469A780778ED40C0,2041,25226,Angela Convenience Store, ,68 Mort St,Balmain,NSW,265,"68 Mort St, Balmain NSW 2041",02 9555 2046,-33.8552255,151.1832802,true,OPAL,Get an Opal card or top up. Contact outlet for shop accessibility.,25226
0101000020E61000004DF73AA9AFE362408192020B60EC40C0,2137,25228,Cabarita Mixed Business, ,133 Cabarita Rd,Cabarita,NSW,266,"133 Cabarita Rd, Cabarita NSW 2137",02 9743 6149,-33.846681,151.115193,true,OPAL,Get an Opal card or top up. Contact outlet for shop accessibility.,25228
0101000020E6100000053E3CD4E1E26240D9613A17C0E840C0,2114,25230,Tobacco Station Shepherds Bay,Shepherds Bay Shopping Centre,11 Village Bay Dr,Meadowbank,NSW,267,"11 Village Bay Dr, Meadowbank NSW 2114",02 9807 9001,-33.818362144,151.090067022,true,OPAL,Get an Opal card or top up. Contact outlet for shop accessibility.,25230
0101000020E6100000590833EC1EE362408DBD5B7C31FE40C0,2221,25233,Riverside Mixed Business,,194 Connells Point Rd,Connells Point,NSW,268,"194 Connells Point Rd, Connells Point NSW 2221",,-33.985885186,151.097524738,true,OPAL,Get an Opal card or top up. Contact outlet for shop accessibility.,25233
0101000020E610000047A5107CB7E162406D43A17207F940C0,2210,25242,Mansour George Tobacconist,,1A Hannans Rd,Riverwood,NSW,269,"1A Hannans Rd, Riverwood NSW 2210",02 9534 3686,-33.945539788,151.053648026,true,OPAL,Get an Opal card or top up. Contact outlet for shop accessibility.,25242
0101000020E61000001AA20A7F86E06240F7B0170AD80641C0,2233,25244,Impact Food Store, ,51-53 Lantana Rd,Engadine,NSW,270,"51-53 Lantana Rd, Engadine NSW 2233",02 9520 4593,-34.053468,151.016418,true,OPAL,Get an Opal card or top up. Contact outlet for shop accessibility.,25244
0101000020E61000006B68A53E00E36240B4A690631FFD40C0,2220,25246,Four Square Hurstville,,31 Seymour St,Hurstville Grove,NSW,271,"31 Seymour St, Hurstville Grove NSW 2220",02 9585 8869,-33.977520414,151.093779872,true,OPAL,Get an Opal card or top up. Contact outlet for shop accessibility.,25246
0101000020E6100000DBD9D69D7EE26240AC6A1EC7DCF440C0,2195,25247,Eddy Corner Shop,,80 Yangoora Rd,Lakemba,NSW,272,"80 Yangoora Rd, Lakemba NSW 2195",02 9759 3463,-33.912987604,151.077956123,true,OPAL,Get an Opal card or top up. Contact outlet for shop accessibility.,25247
0101000020E6100000A21D5609DDDA624019F4B79AFB3C41C0,2506,25251,Berkeley Welcome Mart,,2 Kelly St,Berkeley,NSW,273,"2 Kelly St, Berkeley NSW 2506",02 4271 1973,-34.476428356,150.839481991,true,OPAL,Get an Opal card or top up. Contact outlet for shop accessibility.,25251
0101000020E6100000EAD7F95E83E062403ED215A946FB40C0,2212,25260,Sam's Superstore & Caf,,271A The River Rd,Revesby Heights,NSW,274,"271A The River Rd, Revesby Heights NSW 2212",02 9771 6949,-33.963093887,151.016036499,true,OPAL,Get an Opal card or top up. Contact outlet for shop accessibility.,25260
0101000020E6100000D07AF832D1E162402AE620E868FB40C0,2210,25262,Peakhurst Convenience Store,Shop 2,9 Park St,Peakhurst,NSW,275,"9 Park St, Peakhurst NSW 2210",02 9584 0923,-33.964139,151.056787,true,OPAL,Get an Opal card or top up. Contact outlet for shop accessibility.,25262
0101000020E61000002638F58164E46240BE13B35E0CDB40C0,2076,25276,Wahroonga East Newsagency, ,44-48 Hampden Ave,Wahroonga,NSW,276,"44-48 Hampden Ave, Wahroonga NSW 2076",02 9489 2899,-33.711315,151.137269,true,OPAL,Get an Opal card or top up. Contact outlet for shop accessibility.,25276
0101000020E61000007DEBC37A23E362409BCAA2B08BD640C0,2077,25289,Hornsby Heights Newsagency, ,110 Galston Rd,Hornsby Heights,NSW,277,"110 Galston Rd, Hornsby Heights NSW 2077",02 9476 2060,-33.676138,151.098081,true,OPAL,Get an Opal card or top up. Contact outlet for shop accessibility.,25289
0101000020E6100000BAE875D58DE562403B843B61D3DB40C0,2075,25294,St Ives Plaza Newsagency, ,351 Mona Vale Rd,St Ives,NSW,278,"351 Mona Vale Rd, St Ives NSW 2075",02 9449 7868,-33.7173883,151.1735637,true,OPAL,Get an Opal card or top up. Contact outlet for shop accessibility.,25294
0101000020E610000047EBDD5CF2E66240C31E03473CDD40C0,2085,25299,Belrose Village Newsagency,,25 Ralston Ave,Belrose,NSW,279,"25 Ralston Ave, Belrose NSW 2085",0426 893 188,-33.72840202,151.217085298,true,OPAL,Get an Opal card or top up. Contact outlet for shop accessibility.,25299
0101000020E6100000005F6C8201DE624025B1FF9530E840C0,2145,25300,Bathurst St Newsagency,,41 Bathurst St,Greystanes,NSW,280,"41 Bathurst St, Greystanes NSW 2145",02 9631 6573,-33.813982725,150.937684261,true,OPAL,Get an Opal card or top up. Contact outlet for shop accessibility.,25300
0101000020E6100000E7EE4FB66CDD62403FFBB7E9D4E140C0,2148,25302,Tony Mcgills Pharmacy,,143 Stephen St,Blacktown,NSW,281,"143 Stephen St, Blacktown NSW 2148",02 9676 1300,-33.764310088,150.919520527,true,OPAL,Get an Opal card or top up. Contact outlet for shop accessibility.,25302
0101000020E6100000E9D2BF2415DD6240DDCF29C8CFF640C0,2170,25306,Flowerdale Sub-Newsagency, ,72 Hoxton Park Rd,Liverpool,NSW,282,"72 Hoxton Park Rd, Liverpool NSW 2170",02 9601 6288,-33.928216,150.908831,true,OPAL,Get an Opal card or top up. Contact outlet for shop accessibility.,25306
0101000020E6100000DECCCCF243D26240517A416CF20941C0,2570,25310,The Oaks Newsagency,,47 John St,The Oaks,NSW,283,"47 John St, The Oaks NSW 2570",02 4657 1558,-34.077710659,150.570794487,true,OPAL,Get an Opal card or top up. Contact outlet for shop accessibility.,25310
0101000020E6100000754161766DF56240F5CEF19C707340C0,2287,25321,Wallsend Newsagency,,126 Nelson St,Wallsend,NSW,284,"126 Nelson St, Wallsend NSW 2287",02 4955 0552,-32.901874178,151.669612112,true,OPAL,Get an Opal card or top up. Contact outlet for shop accessibility.,25321
0101000020E610000047904AB123E66240BB96900F7AEA40C0,2065,25326,Wollstonecraft Bookstall,Wollstonecraft Station,Shirley Rd,Wollstonecraft,NSW,285,"Wollstonecraft Station, Shirley Rd, Wollstonecraft NSW 2065",02 9436 1515,-33.83185,151.191857,true,OPAL,Get an Opal card or top up. Contact outlet for shop accessibility.,25326
0101000020E6100000A228D02772E36240D4D688601CD840C0,2077,25331,Asquith Newsagency, ,377 Pacific Hwy,Asquith,NSW,286,"377 Pacific Hwy, Asquith NSW 2077",02 9476 2968,-33.688366,151.107685,true,OPAL,Get an Opal card or top up. Contact outlet for shop accessibility.,25331
0101000020E6100000415538C1D8E26240B3DA87B2F3ED40C0,2137,25336,North Strathfield Mini Market,,87 Queen St,North Strathfield,NSW,287,"87 Queen St, North Strathfield NSW 2137",02 9743 2153,-33.858999554,151.088959322,true,OPAL,Get an Opal card or top up. Contact outlet for shop accessibility.,25336
0101000020E61000006F438CD7BCE662402106BAF605EC40C0,2061,25339,Emporium Supermarket, ,118 Alfred St,Milsons Point,NSW,288,"118 Alfred St, Milsons Point NSW 2061",02 9460 1890,-33.843932,151.210552,true,OPAL,Get an Opal card or top up. Contact outlet for shop accessibility.,25339
0101000020E610000015673F6407E46240A4776EFD9BF140C0,2131,25340,Ashfield Railway Bookstore,Ashfield Station,1 Station St,Ashfield,NSW,289,"Ashfield Station, 1 Station St, Ashfield NSW 2131",02 9798 3205,-33.887572936,151.125902294,true,OPAL,Get an Opal card or top up. Contact outlet for shop accessibility.,25340
0101000020E6100000754C3EBF7DE06240C53CC385D0F940C0,2212,25344,Revesby Newsagency, ,46 Simmons St,Revesby,NSW,290,"46 Simmons St, Revesby NSW 2212",02 9773 9121,-33.951676102,151.015349981,true,OPAL,Get an Opal card or top up. Contact outlet for shop accessibility.,25344
0101000020E61000000C5A48C0E8E56240AB274E4931F340C0,2043,25345,Erskineville Newsagency, ,89 Erskineville Rd,Erskineville,NSW,291,"89 Erskineville Rd, Erskineville NSW 2043",02 9557 4364,-33.8999416,151.184662,true,OPAL,Get an Opal card or top up. Contact outlet for shop accessibility.,25345
0101000020E6100000C3D84290C3E562403411363CBDF340C0,2042,25346,MFC Supermarket Newtown, ,553 King St,Newtown,NSW,292,"553 King St, Newtown NSW 2042",02 9519 7966,-33.9042125,151.1801225,true,OPAL,Get an Opal card or top up. Contact outlet for shop accessibility.,25346
0101000020E61000001F0DA7CC4DE362402426A8E15BF040C0,2134,25347,Burwood Newsagency,Murray Arcade,127-133 Burwood Rd,Burwood,NSW,293,"Murray Arcade, 127-133 Burwood Rd, Burwood NSW 2134",02 9744 9888,-33.877804,151.103247,true,OPAL,Get an Opal card or top up. Contact outlet for shop accessibility.,25347
0101000020E6100000E02648117EDF62401BF1643733FB40C0,2213,25348,East Hills Newsagency, ,31 Maclaurin Ave,East Hills,NSW,294,"31 Maclaurin Ave, East Hills NSW 2213",02 9773 8673,-33.9625005,150.9841391,true,OPAL,Get an Opal card or top up. Contact outlet for shop accessibility.,25348
0101000020E610000095F25A099DDC62407961C66F65FC40C0,2167,25351,Glenfield Newsagency, ,80-86 Railway Pde,Glenfield,NSW,295,"80-86 Railway Pde, Glenfield NSW 2167",02 9605 5778,-33.9718456,150.8941695,true,OPAL,Get an Opal card or top up. Contact outlet for shop accessibility.,25351
0101000020E61000001F916D1BB1E362401766CC1D30FC40C0,2218,25352,Allawah Supermarket,,"Shop 4, 452 Railway Pde",Allawah,NSW,296,"Shop 4, 452 Railway Pde, Allawah NSW 2218",02 9553 8371,-33.970218396,151.115369524,true,OPAL,Get an Opal card or top up. Contact outlet for shop accessibility.,25352
0101000020E6100000F4C87AC5EEDD6240F81A82E332E340C0,2147,25355,A & J Newsagency, ,63 Boomerang Pl,Seven Hills,NSW,297,"63 Boomerang Pl, Seven Hills NSW 2147",02 9622 1356,-33.7749905,150.9353969,true,OPAL,Get an Opal card or top up. Contact outlet for shop accessibility.,25355
0101000020E6100000AE34DF7742E06240FA66F6D445E940C0,2150,25356,Harris Park Convenience, ,53B Marion St,Harris Park,NSW,298,"53B Marion St, Harris Park NSW 2150",02 9635 6885,-33.8224436,151.0081138,true,OPAL,Get an Opal card or top up. Contact outlet for shop accessibility.,25356
0101000020E6100000C4E0AB6712E16240FB7F8B0409E740C0,2117,25358,Dundas Newsagency, ,2 Station St,Dundas,NSW,299,"2 Station St, Dundas NSW 2117",02 9638 1869,-33.8049627,151.0334967,true,OPAL,Get an Opal card or top up. Contact outlet for shop accessibility.,25358
0101000020E6100000460BD0B61ADF62402FBABC395CE740C0,2145,25361,Apna Mart, ,5 Station St,Wentworthville,NSW,300,"5 Station St, Wentworthville NSW 2145",02 9769 0223,-33.807502,150.972011,true,OPAL,Get an Opal card or top up. Contact outlet for shop accessibility.,25361
0101000020E6100000F17A30297EE162405001309E41E440C0,2118,25362,Carlingford News, ,314A Pennant Hills Rd,Carlingford,NSW,301,"314A Pennant Hills Rd, Carlingford NSW 2118",02 9871 6080,-33.7832525,151.0466505,true,OPAL,Get an Opal card or top up. Contact outlet for shop accessibility.,25362
0101000020E610000068CBB914D7E26240FCC8AD49B7FB40C0,2222,25363,Strand Newsagency, ,12 The Strand,Penshurst,NSW,302,"12 The Strand, Penshurst NSW 2222",02 9580 1742,-33.966531,151.088755,true,OPAL,Get an Opal card or top up. Contact outlet for shop accessibility.,25363
0101000020E6100000028063CF1EE06240F9FB7BDFAEE840C0,2150,25364,City Convenience Store Church St, ,140 Church St,Parramatta,NSW,303,"140 Church St, Parramatta NSW 2150",02 9633 5000,-33.8178367,151.003761,true,OPAL,Get an Opal card or top up. Contact outlet for shop accessibility.,25364
0101000020E6100000091A3389FADA624011E15F048D0341C0,2566,25366,Minto Newsagency, ,1 Minto Rd,Minto,NSW,304,"1 Minto Rd, Minto NSW 2566",02 9603 2298,-34.027741,150.843083,true,OPAL,Get an Opal card or top up. Contact outlet for shop accessibility.,25366
0101000020E6100000E4DA5031CEDC62407632384A5EF940C0,2170,25369,Casula Mall Newsagency,"Shop 17, Casula Mall",Kurrajong Rd,Casula,NSW,305,"Casula Mall, Kurrajong Rd, Casula NSW 2170",02 9821 1416,-33.94819,150.90017,true,OPAL,Get an Opal card or top up. Contact outlet for shop accessibility.,25369
0101000020E61000008923516008DB6240FCC6B1D7363A41C0,2526,25370,Unanderra Newsagency,,102-108 Princes Hwy,Unanderra,NSW,306,"102-108 Princes Hwy, Unanderra NSW 2526",02 4271 1267,-34.454798662,150.84477249,true,OPAL,Get an Opal card or top up. Contact outlet for shop accessibility.,25370
0101000020E6100000913E01A25DDD62408A33179CA72841C0,2515,25374,Thirroul Railway Stationers & Newsagency,Shop 1,357 Lawrence Hargrave Dr,Thirroul,NSW,307,"357 Lawrence Hargrave Dr, Thirroul NSW 2515 ",13 77 88,-34.317615043,150.917679789,true,OPAL,Get an Opal card or top up. Contact outlet for shop accessibility.,25374
0101000020E6100000488B338639DE62402CB64945632541C0,2515,25376,Coledale Newsagency, ,749-751 Lawrence Hargrave Dr,Coledale,NSW,308,"749-751 Lawrence Hargrave Dr, Coledale NSW 2515",02 4267 2270,-34.292092,150.944522,true,OPAL,Get an Opal card or top up. Contact outlet for shop accessibility.,25376
0101000020E6100000CAC5A8038AF46240090A7206356440C0,2322,25378,Thornton Newsagency,,19 Railway Ave,Thornton,NSW,309,"19 Railway Ave, Thornton NSW 2322",02 4966 2225,-32.7828682,151.641847448,true,OPAL,Get an Opal card or top up. Contact outlet for shop accessibility.,25378
0101000020E610000027AA12C068E962403370404B57DF40C0,2099,25384,Dee Why Allfoods, ,1B South Creek Rd,Dee Why,NSW,310,"1B South Creek Rd, Dee Why NSW 2099",02 9971 5405,-33.7448515,151.2940369,true,OPAL,Get an Opal card or top up. Contact outlet for shop accessibility.,25384
0101000020E6100000CCDC32961FE762406C6856F86BEA40C0,2089,25390,Cignall Neutral Bay,,202-212 Military Rd,Neutral Bay,NSW,311,"202-212 Military Rd, Neutral Bay NSW 2089",02 9953 8883,-33.831419985,151.2226058,true,OPAL,Get an Opal card or top up. Contact outlet for shop accessibility.,25390
0101000020E61000005FD1ADD7B4EA6240DED2C5014FD040C0,2107,25393,North Avalon General Store, ,1 North Avalon Rd,Avalon,NSW,312,"1 North Avalon Rd, Avalon NSW 2107",02 9973 1180,-33.6274111,151.3345755,true,OPAL,Get an Opal card or top up. Contact outlet for shop accessibility.,25393
0101000020E610000094A872350DE86240CD38B29712F940C0,2035,25412,EzyMart Maroubra, ,496 Malabar Rd,Maroubra,NSW,313,"496 Malabar Rd, Maroubra NSW 2035",02 9349 1655,-33.9458799,151.2516124,true,OPAL,Get an Opal card or top up. Contact outlet for shop accessibility.,25412
0101000020E61000007DAAAF5351E86240407969D48DF340C0,2024,25415,Sams Mixed Business Shop, ,408 Bronte Rd,Bronte,NSW,314,"408 Bronte Rd, Bronte NSW 2024",02 9389 9358,-33.9027658,151.2599276,true,OPAL,Get an Opal card or top up. Contact outlet for shop accessibility.,25415
0101000020E6100000EA7B0DC1F1E76240DC9DB5DB2EF240C0,2022,25416,King of the Pack Bondi Junction, ,157 Oxford St,Bondi Junction,NSW,315,"157 Oxford St, Bondi Junction NSW 2022",02 9386 0743,-33.892055,151.248261,true,OPAL,Get an Opal card or top up. Contact outlet for shop accessibility.,25416
0101000020E6100000AD174339D1E6624001857AFA08F240C0,2010,25418,Convenience Plus, ,646 Crown St,Surry Hills,NSW,316,"646 Crown St, Surry Hills NSW 2010",02 9319 3382,-33.890899,151.21304,true,OPAL,Get an Opal card or top up. Contact outlet for shop accessibility.,25418
0101000020E61000002BDD5D6743E76240AEF02E17F1F540C0,2032,25419,Freechoice Tobacconist Kingsford, ,424 Anzac Pde,Kingsford,NSW,317,"424 Anzac Pde, Kingsford NSW 2032",02 9663 0366,-33.92142,151.226978,true,OPAL,Get an Opal card or top up. Contact outlet for shop accessibility.,25419
0101000020E6100000441A70F14BE46240BF057EF909ED40C0,2046,25434,Nautica Convenience, ,2 Bechert Rd,Chiswick,NSW,318,"2 Bechert Rd, Chiswick NSW 2046",02 9712 4499,-33.8518669,151.1342704,true,OPAL,Get an Opal card or top up. Contact outlet for shop accessibility.,25434
0101000020E61000004FB80D5953E16240850F801365E140C0,2118,25446,Carmen Drive Newsagency, ,2 Carmen Dr,Carlingford,NSW,319,"2 Carmen Dr, Carlingford NSW 2118",02 9871 7182,-33.7608971,151.0414243,true,OPAL,Get an Opal card or top up. Contact outlet for shop accessibility.,25446
0101000020E6100000FC0C214750E1624081AB02D666E140C0,2118,25450,Carmen Drive Supermarket,,12 Carmen Dr,Carlingford,NSW,320,"12 Carmen Dr, Carlingford NSW 2118",02 9871 1349,-33.760950805,151.041049542,true,OPAL,Get an Opal card or top up. Contact outlet for shop accessibility.,25450
0101000020E6100000C9699956D4E06240B2930BDF0CE640C0,2117,25451,Oatlands Newsagency, ,44A Belmore St,Oatlands,NSW,321,"44A Belmore St, Oatlands NSW 2117",02 9630 3212,-33.7972678,151.0259202,true,OPAL,Get an Opal card or top up. Contact outlet for shop accessibility.,25451
0101000020E610000068525447D8E06240D541B9C898E240C0,2151,25456,North Rocks Newsagency, ,312B North Rocks Rd,North Rocks,NSW,322,"312B North Rocks Rd, North Rocks NSW 2151",02 9871 3356,-33.7702876,151.0264012,true,OPAL,Get an Opal card or top up. Contact outlet for shop accessibility.,25456
0101000020E6100000A5AD5B4E93E46240CF656A12BCEA40C0,2110,25457,Hilltree Newsagency, ,45 Gladesville Rd,Hunters Hill,NSW,323,"45 Gladesville Rd, Hunters Hill NSW 2110",02 9817 1353,-33.8338645,151.1429817,true,OPAL,Get an Opal card or top up. Contact outlet for shop accessibility.,25457
0101000020E61000009F0F8585C9E66240E3F093B42CEF40C0,2000,25464,Queens Square Newsagency, ,229 Macquarie St,Sydney,NSW,324,"229 Macquarie St, Sydney NSW 2000",02 9235 2380,-33.8685518,151.2120998,true,OPAL,Get an Opal card or top up. Contact outlet for shop accessibility.,25464
0101000020E610000028B682A625E66240D42B6519E2EE40C0,2009,25469,Convenience Store Village, ,38 Harris St,Pyrmont,NSW,325,"38 Harris St, Pyrmont NSW 2009",02 9571 4711,-33.866275,151.192096,true,OPAL,Get an Opal card or top up. Contact outlet for shop accessibility.,25469
0101000020E61000003C2E0D70BFE162404EDF4CFB8FFC40C0,2210,25485,Scoop Food Store,,40 Pindari Rd,Peakhurst Heights,NSW,326,"40 Pindari Rd, Peakhurst Heights NSW 2210",02 9533 5024,-33.973143971,151.05461886,true,OPAL,Get an Opal card or top up. Contact outlet for shop accessibility.,25485
0101000020E6100000EE27637C98DE6240A5129ED0EBD540C0,2156,25501,Friendly Grocer Annangrove, ,169 Annangrove Rd,Annangrove,NSW,327,"169 Annangrove Rd, Annangrove NSW 2156",02 9679 2764,-33.671259,150.956114,true,OPAL,Get an Opal card or top up. Contact outlet for shop accessibility.,25501
0101000020E61000008CF4A2763FD662405A828C800A0741C0,2575,25506,Camden Newsagency, ,130 Argyle St,Camden,NSW,328,"130 Argyle St, Camden NSW 2575",02 4655 8068,-34.055008,150.695247,true,OPAL,Get an Opal card or top up. Contact outlet for shop accessibility.,25506
0101000020E6100000B951800241ED6240716E8FB571A740C0,2259,25517,Newspower Tuggerah,"Shop 1082, Westfield Tuggerah",50 Wyong Rd,Tuggerah,NSW,329,"Westfield Tuggerah, 50 Wyong Rd, Tuggerah NSW 2259",02 4355 4476,-33.30815763,151.414185763,true,OPAL,Get an Opal card or top up. Contact outlet for shop accessibility.,25517
0101000020E61000009D34216E4DF162401BA43171E3A140C0,2263,25518,Toukley Newsagency,,30 Canton Beach Rd ,Toukley,NSW,330,"30 Canton Beach Rd, Toukley NSW 2263",02 4396 4107,-33.264753484,151.540701928,true,OPAL,Get an Opal card or top up. Contact outlet for shop accessibility.,25518
0101000020E610000072E778BBD4E26240017F9D407DF540C0,2192,25525,Belmore Newsagency, ,362 Burwood Rd,Belmore,NSW,331,"362 Burwood Rd, Belmore NSW 2192",02 9759 1167,-33.9178849,151.0884683,true,OPAL,Get an Opal card or top up. Contact outlet for shop accessibility.,25525
0101000020E61000008CB3E908E0E46240A76E2EFEB6CF40C0,2081,25526,Berowra Newsagency, ,1001 Pacific Hwy,Berowra,NSW,332,"1001 Pacific Hwy, Berowra NSW 2081",02 9456 1270,-33.622772,151.152348,true,OPAL,Get an Opal card or top up. Contact outlet for shop accessibility.,25526
0101000020E610000042E7DABC96E26240F27E37386CF940C0,2209,25527,Beverly Hills Stationery News, ,14 Tooronga Tce,Beverly Hills,NSW,333,"14 Tooronga Tce, Beverly Hills NSW 2209",02 9150 8992,-33.9486151,151.0809006,true,OPAL,Get an Opal card or top up. Contact outlet for shop accessibility.,25527
0101000020E6100000DEAF027C37E46240018A912573F440C0,2193,25528,Hurlstone Park Newsagency, ,12 Crinan St,Hurlstone Park,NSW,334,"12 Crinan St, Hurlstone Park NSW 2193",02 9558 3164,-33.909764,151.131773,true,OPAL,Get an Opal card or top up. Contact outlet for shop accessibility.,25528
